{"type":"FeatureCollection","features":[{"type":"Feature","properties":{"ID_BAT":"3513901","CODE_INSEE":"35139","NOM_COM":"Laillé","CODE_EPCI":"243500139","NOM_EPCI":"Rennes Métropole","NOM_BATI":"Salle Des Sports, Haut Patis","ADRESSE":"12 Rue du Stade","SURFACE":1800,"RENOVATION":"Non","TYPE":"Sportif","CO2 en Tonnes":2.237568,"ANNEE":"2022"},"geometry":{"type":"Point","coordinates":[-1.7150278,47.9826555]}},{"type":"Feature","properties":{"ID_BAT":"3513902","CODE_INSEE":"35139","NOM_COM":"Laillé","CODE_EPCI":"243500139","NOM_EPCI":"Rennes Métropole","NOM_BATI":"Le  Point 21","ADRESSE":"21 Rue du Point du Jour","SURFACE":1590,"RENOVATION":"Non","TYPE":"Socio-culturel","CO2 en Tonnes":11.7779162,"ANNEE":"2022"},"geometry":{"type":"Point","coordinates":[-1.7170939,47.9784058]}},{"type":"Feature","properties":{"ID_BAT":"3513903","CODE_INSEE":"35139","NOM_COM":"Laillé","CODE_EPCI":"243500139","NOM_EPCI":"Rennes Métropole","NOM_BATI":"Groupe Scolaire/Alsh","ADRESSE":"23 Rue du Parc","SURFACE":2925,"RENOVATION":"Oui","TYPE":"Scolaire – enfance","CO2 en Tonnes":23.4104393,"ANNEE":"2022"},"geometry":{"type":"Point","coordinates":[-1.7198736,47.9807299]}},{"type":"Feature","properties":{"ID_BAT":"3513904","CODE_INSEE":"35139","NOM_COM":"Laillé","CODE_EPCI":"243500139","NOM_EPCI":"Rennes Métropole","NOM_BATI":"Crèche Halte Garderie","ADRESSE":"1 Allee du Chateau Noble","SURFACE":270,"RENOVATION":"Non","TYPE":"Scolaire – enfance","CO2 en Tonnes":7.4180409,"ANNEE":"2022"},"geometry":{"type":"Point","coordinates":[-1.7211936,47.9779754]}},{"type":"Feature","properties":{"ID_BAT":"3513905","CODE_INSEE":"35139","NOM_COM":"Laillé","CODE_EPCI":"243500139","NOM_EPCI":"Rennes Métropole","NOM_BATI":"Mairie","ADRESSE":"Rue de la Halte","SURFACE":400,"RENOVATION":"Non","TYPE":"Scolaire – enfance","CO2 en Tonnes":2.658368,"ANNEE":"2022"},"geometry":{"type":"Point","coordinates":[-1.7214672,47.9787589]}},{"type":"Feature","properties":{"ID_BAT":"3513906","CODE_INSEE":"35139","NOM_COM":"Laillé","CODE_EPCI":"243500139","NOM_EPCI":"Rennes Métropole","NOM_BATI":"Restaurant  Scolaire","ADRESSE":"3 Rue du Patis","SURFACE":907,"RENOVATION":"Oui","TYPE":"Restauration","CO2 en Tonnes":17.5170789,"ANNEE":"2022"},"geometry":{"type":"Point","coordinates":[-1.7157448,47.9795322]}},{"type":"Feature","properties":{"ID_BAT":"3513907","CODE_INSEE":"35139","NOM_COM":"Laillé","CODE_EPCI":"243500139","NOM_EPCI":"Rennes Métropole","NOM_BATI":"Complexe L'archipel","ADRESSE":"2 Boulevard du Commandant Cousteau","SURFACE":3110,"RENOVATION":"Oui","TYPE":"Sportif","CO2 en Tonnes":56.4629741,"ANNEE":"2022"},"geometry":{"type":"Point","coordinates":[-1.718013,47.9825655]}},{"type":"Feature","properties":{"ID_BAT":"3500101","CODE_INSEE":"35001","NOM_COM":"Acigné","CODE_EPCI":"243500139","NOM_EPCI":"Rennes Métropole","NOM_BATI":"Mairie / Salle Des Cloueres","ADRESSE":"Place de la Mairie","SURFACE":1018.78,"RENOVATION":"Non","TYPE":"Administratif","CO2 en Tonnes":14.3597355,"ANNEE":"2022"},"geometry":{"type":"Point","coordinates":[-1.5341244,48.1336153]}},{"type":"Feature","properties":{"ID_BAT":"3500102","CODE_INSEE":"35001","NOM_COM":"Acigné","CODE_EPCI":"243500139","NOM_EPCI":"Rennes Métropole","NOM_BATI":"La Passerelle + Ecoles + Restaurant Municipal","ADRESSE":"Rue du stade","SURFACE":6109.35,"RENOVATION":"Non","TYPE":"Scolaire – enfance","CO2 en Tonnes":156.1268549,"ANNEE":"2022"},"geometry":{"type":"Point","coordinates":[-1.5384939,48.1342775]}},{"type":"Feature","properties":{"ID_BAT":"3500104","CODE_INSEE":"35001","NOM_COM":"Acigné","CODE_EPCI":"243500139","NOM_EPCI":"Rennes Métropole","NOM_BATI":"Complexe Sportif De La Lande Guerin","ADRESSE":"Rue des Verdaudais","SURFACE":3071,"RENOVATION":"Non","TYPE":"Sportif","CO2 en Tonnes":52.4461319,"ANNEE":"2022"},"geometry":{"type":"Point","coordinates":[-1.5338203,48.1396972]}},{"type":"Feature","properties":{"ID_BAT":"3500105","CODE_INSEE":"35001","NOM_COM":"Acigné","CODE_EPCI":"243500139","NOM_EPCI":"Rennes Métropole","NOM_BATI":"Le Triptik","ADRESSE":"6 Rue du Triptik","SURFACE":1474.4,"RENOVATION":"Non","TYPE":"Socio-culturel","CO2 en Tonnes":6.67168,"ANNEE":"2022"},"geometry":{"type":"Point","coordinates":[-1.5330328,48.1420727]}},{"type":"Feature","properties":{"ID_BAT":"3500106","CODE_INSEE":"35001","NOM_COM":"Acigné","CODE_EPCI":"243500139","NOM_EPCI":"Rennes Métropole","NOM_BATI":"Ecole De Musique","ADRESSE":"12 Rue de Calais","SURFACE":475,"RENOVATION":"Non","TYPE":"Socio-culturel","CO2 en Tonnes":1.856,"ANNEE":"2022"},"geometry":{"type":"Point","coordinates":[-1.5347125,48.132534]}},{"type":"Feature","properties":{"ID_BAT":"3500107","CODE_INSEE":"35001","NOM_COM":"Acigné","CODE_EPCI":"243500139","NOM_EPCI":"Rennes Métropole","NOM_BATI":"Complexe Sportif Du Chevre + Multi-Accueil Chrysalide","ADRESSE":"Rue du stade","SURFACE":3275.24,"RENOVATION":"Non","TYPE":"Sportif","CO2 en Tonnes":40.6126863,"ANNEE":"2022"},"geometry":{"type":"Point","coordinates":[-1.54001,48.1360466]}},{"type":"Feature","properties":{"ID_BAT":"3500108","CODE_INSEE":"35001","NOM_COM":"Acigné","CODE_EPCI":"243500139","NOM_EPCI":"Rennes Métropole","NOM_BATI":"Centre Technique Municipal","ADRESSE":"11 Joval","SURFACE":861.5,"RENOVATION":"Non","TYPE":"Technique","CO2 en Tonnes":15.0855683,"ANNEE":"2022"},"geometry":{"type":"Point","coordinates":[-1.5179872,48.1350156]}},{"type":"Feature","properties":{"ID_BAT":"3500109","CODE_INSEE":"35001","NOM_COM":"Acigné","CODE_EPCI":"243500139","NOM_EPCI":"Rennes Métropole","NOM_BATI":"Ferme De La Motte","ADRESSE":"La motte","SURFACE":830,"RENOVATION":"Non","TYPE":"Socio-culturel","CO2 en Tonnes":3.2114947,"ANNEE":"2022"},"geometry":{"type":"Point","coordinates":[-1.5266021,48.1320397]}},{"type":"Feature","properties":{"ID_BAT":"3500111","CODE_INSEE":"35001","NOM_COM":"Acigné","CODE_EPCI":"243500139","NOM_EPCI":"Rennes Métropole","NOM_BATI":"Ehpad","ADRESSE":"2 Rue Germaine Tillion","SURFACE":3211.72,"RENOVATION":"Non","TYPE":"Résidentiel","CO2 en Tonnes":82.3906043,"ANNEE":"2022"},"geometry":{"type":"Point","coordinates":[-1.5280186,48.1411842]}},{"type":"Feature","properties":{"ID_BAT":"3500112","CODE_INSEE":"35001","NOM_COM":"Acigné","CODE_EPCI":"243500139","NOM_EPCI":"Rennes Métropole","NOM_BATI":"Vestiaires De Rugby","ADRESSE":"Rue des Verdaudais","SURFACE":374.51,"RENOVATION":"Non","TYPE":"Sportif","CO2 en Tonnes":7.8210164,"ANNEE":"2022"},"geometry":{"type":"Point","coordinates":[-1.5343359,48.1416711]}},{"type":"Feature","properties":{"ID_BAT":"3500301","CODE_INSEE":"35003","NOM_COM":"Andouillé-Neuville","CODE_EPCI":"243500667","NOM_EPCI":"CC Val d'Ille-Aubigné","NOM_BATI":"Groupe Scolaire","ADRESSE":"3 RUE DE NEUVILLE","SURFACE":1075,"RENOVATION":"Non","TYPE":"Scolaire – enfance","CO2 en Tonnes":5.089216,"ANNEE":"2022"},"geometry":{"type":"Point","coordinates":[-1.5897083,48.2951996]}},{"type":"Feature","properties":{"ID_BAT":"3500302","CODE_INSEE":"35003","NOM_COM":"Andouillé-Neuville","CODE_EPCI":"243500667","NOM_EPCI":"CC Val d'Ille-Aubigné","NOM_BATI":"Mairie Et Salle Des Fêtes","ADRESSE":"1 PLACE DES CROISETTES","SURFACE":352,"RENOVATION":"Oui","TYPE":"Administratif","CO2 en Tonnes":2.408256,"ANNEE":"2022"},"geometry":{"type":"Point","coordinates":[-1.5908073,48.2933978]}},{"type":"Feature","properties":{"ID_BAT":"3500303","CODE_INSEE":"35003","NOM_COM":"Andouillé-Neuville","CODE_EPCI":"243500667","NOM_EPCI":"CC Val d'Ille-Aubigné","NOM_BATI":"Centre De Loisirs","ADRESSE":"3 RUE DE LA VALLEE","SURFACE":402,"RENOVATION":"Non","TYPE":"Scolaire – enfance","CO2 en Tonnes":1.902144,"ANNEE":"2022"},"geometry":{"type":"Point","coordinates":[-1.5886542,48.2964452]}},{"type":"Feature","properties":{"ID_BAT":"3500304","CODE_INSEE":"35003","NOM_COM":"Andouillé-Neuville","CODE_EPCI":"243500667","NOM_EPCI":"CC Val d'Ille-Aubigné","NOM_BATI":"Bibliotheque","ADRESSE":"3 RUE DE LA VALLEE","SURFACE":95,"RENOVATION":"Non","TYPE":"Socio-culturel","CO2 en Tonnes":0.307776,"ANNEE":"2022"},"geometry":{"type":"Point","coordinates":[-1.5887584,48.2963619]}},{"type":"Feature","properties":{"ID_BAT":"3502401","CODE_INSEE":"35024","NOM_COM":"Betton","CODE_EPCI":"243500139","NOM_EPCI":"Rennes Métropole","NOM_BATI":"Ehpad (Résidence De L'ille)","ADRESSE":"16 Av. de Moretonhampstead","SURFACE":1822,"RENOVATION":"Non","TYPE":"Médico-social","CO2 en Tonnes":71.6627948,"ANNEE":"2022"},"geometry":{"type":"Point","coordinates":[-1.6502239,48.1799714]}},{"type":"Feature","properties":{"ID_BAT":"3502402","CODE_INSEE":"35024","NOM_COM":"Betton","CODE_EPCI":"243500139","NOM_EPCI":"Rennes Métropole","NOM_BATI":"Centre Administratif (Mairie)","ADRESSE":"Pl. Charles de Gaulle","SURFACE":3436,"RENOVATION":"Oui","TYPE":"Administratif","CO2 en Tonnes":62.9038693,"ANNEE":"2022"},"geometry":{"type":"Point","coordinates":[-1.6403765,48.1823951]}},{"type":"Feature","properties":{"ID_BAT":"3502403","CODE_INSEE":"35024","NOM_COM":"Betton","CODE_EPCI":"243500139","NOM_EPCI":"Rennes Métropole","NOM_BATI":"Groupe Scolaire Les Mézières","ADRESSE":"61 Av. d'Armorique","SURFACE":1680,"RENOVATION":"Non","TYPE":"Scolaire – enfance","CO2 en Tonnes":38.4803554,"ANNEE":"2022"},"geometry":{"type":"Point","coordinates":[-1.6488062,48.1846109]}},{"type":"Feature","properties":{"ID_BAT":"3502404","CODE_INSEE":"35024","NOM_COM":"Betton","CODE_EPCI":"243500139","NOM_EPCI":"Rennes Métropole","NOM_BATI":"Cuisine Centrale Et Centre Technique Municipal","ADRESSE":"La Renaudais","SURFACE":2073,"RENOVATION":"Non","TYPE":"Technique","CO2 en Tonnes":64.3979655,"ANNEE":"2022"},"geometry":{"type":"Point","coordinates":[-1.6604557,48.1828976]}},{"type":"Feature","properties":{"ID_BAT":"3502405","CODE_INSEE":"35024","NOM_COM":"Betton","CODE_EPCI":"243500139","NOM_EPCI":"Rennes Métropole","NOM_BATI":"Complexe Sportif Des Omblais","ADRESSE":"Av. de Moretonhampstead","SURFACE":6958,"RENOVATION":"Oui","TYPE":"Sportif","CO2 en Tonnes":119.6956591,"ANNEE":"2022"},"geometry":{"type":"Point","coordinates":[-1.6479213,48.1781418]}},{"type":"Feature","properties":{"ID_BAT":"3502406","CODE_INSEE":"35024","NOM_COM":"Betton","CODE_EPCI":"243500139","NOM_EPCI":"Rennes Métropole","NOM_BATI":"Complexe Sportif La Touche","ADRESSE":"16 Rue de la Côté d'Émeraude","SURFACE":3112,"RENOVATION":"Non","TYPE":"Sportif","CO2 en Tonnes":46.775935,"ANNEE":"2022"},"geometry":{"type":"Point","coordinates":[-1.6463391,48.1876137]}},{"type":"Feature","properties":{"ID_BAT":"3502407","CODE_INSEE":"35024","NOM_COM":"Betton","CODE_EPCI":"243500139","NOM_EPCI":"Rennes Métropole","NOM_BATI":"Groupe Scolaire Des Omblais","ADRESSE":"7 Rue de la Rabine","SURFACE":3892,"RENOVATION":"Oui","TYPE":"Scolaire – enfance","CO2 en Tonnes":27.2807367,"ANNEE":"2022"},"geometry":{"type":"Point","coordinates":[-1.6505406,48.1785232]}},{"type":"Feature","properties":{"ID_BAT":"3502408","CODE_INSEE":"35024","NOM_COM":"Betton","CODE_EPCI":"243500139","NOM_EPCI":"Rennes Métropole","NOM_BATI":"Espace Polyvalent Anita Conti","ADRESSE":"10 Rue du Trégor","SURFACE":611,"RENOVATION":"Non","TYPE":"Socio-culturel","CO2 en Tonnes":10.6827967,"ANNEE":"2022"},"geometry":{"type":"Point","coordinates":[-1.647671,48.1833415]}},{"type":"Feature","properties":{"ID_BAT":"3502409","CODE_INSEE":"35024","NOM_COM":"Betton","CODE_EPCI":"243500139","NOM_EPCI":"Rennes Métropole","NOM_BATI":"Multi-Site La Haye Renaud","ADRESSE":"3 Rue des Marronniers","SURFACE":4346,"RENOVATION":"Oui","TYPE":"Scolaire – enfance","CO2 en Tonnes":71.5904857,"ANNEE":"2022"},"geometry":{"type":"Point","coordinates":[-1.6360881,48.1767725]}},{"type":"Feature","properties":{"ID_BAT":"3502410","CODE_INSEE":"35024","NOM_COM":"Betton","CODE_EPCI":"243500139","NOM_EPCI":"Rennes Métropole","NOM_BATI":"Ecole De Musique","ADRESSE":"5 Rue du Vau Chalet","SURFACE":604,"RENOVATION":"Non","TYPE":"Socio-culturel","CO2 en Tonnes":22.4890797,"ANNEE":"2022"},"geometry":{"type":"Point","coordinates":[-1.6443507,48.1815429]}},{"type":"Feature","properties":{"ID_BAT":"3502411","CODE_INSEE":"35024","NOM_COM":"Betton","CODE_EPCI":"243500139","NOM_EPCI":"Rennes Métropole","NOM_BATI":"Maison (Adom+ Et Admr)","ADRESSE":"34 Av. d'Armorique","SURFACE":105,"RENOVATION":"Non","TYPE":"Administratif","CO2 en Tonnes":0.991808,"ANNEE":"2022"},"geometry":{"type":"Point","coordinates":[-1.6445952,48.1822463]}},{"type":"Feature","properties":{"ID_BAT":"3502412","CODE_INSEE":"35024","NOM_COM":"Betton","CODE_EPCI":"243500139","NOM_EPCI":"Rennes Métropole","NOM_BATI":"Point Accueil Emploi","ADRESSE":"28 Av. d'Armorique","SURFACE":209,"RENOVATION":"Non","TYPE":"Administratif","CO2 en Tonnes":6.2267563,"ANNEE":"2022"},"geometry":{"type":"Point","coordinates":[-1.6430696,48.1821913]}},{"type":"Feature","properties":{"ID_BAT":"3502413","CODE_INSEE":"35024","NOM_COM":"Betton","CODE_EPCI":"243500139","NOM_EPCI":"Rennes Métropole","NOM_BATI":"Médiathèque","ADRESSE":"5bis Rue du Vau Chalet","SURFACE":1245,"RENOVATION":"Non","TYPE":"Socio-culturel","CO2 en Tonnes":5.304768,"ANNEE":"2022"},"geometry":{"type":"Point","coordinates":[-1.6435298,48.1814508]}},{"type":"Feature","properties":{"ID_BAT":"3502414","CODE_INSEE":"35024","NOM_COM":"Betton","CODE_EPCI":"243500139","NOM_EPCI":"Rennes Métropole","NOM_BATI":"Alsh La Chaperonnais","ADRESSE":"La Chaperonnais","SURFACE":1408,"RENOVATION":"Oui","TYPE":"Scolaire – enfance","CO2 en Tonnes":6.9685419,"ANNEE":"2022"},"geometry":{"type":"Point","coordinates":[-1.665345,48.1766213]}},{"type":"Feature","properties":{"ID_BAT":"3502415","CODE_INSEE":"35024","NOM_COM":"Betton","CODE_EPCI":"243500139","NOM_EPCI":"Rennes Métropole","NOM_BATI":"Le Prieuré","ADRESSE":"Pl. de l'Église","SURFACE":1201,"RENOVATION":"Non","TYPE":"Socio-culturel","CO2 en Tonnes":3.84864,"ANNEE":"2022"},"geometry":{"type":"Point","coordinates":[-1.6436988,48.1827169]}},{"type":"Feature","properties":{"ID_BAT":"3502416","CODE_INSEE":"35024","NOM_COM":"Betton","CODE_EPCI":"243500139","NOM_EPCI":"Rennes Métropole","NOM_BATI":"Epicerie Sociale","ADRESSE":"7 Rue du Clos Paisible","SURFACE":219,"RENOVATION":"Non","TYPE":"Socio-culturel","CO2 en Tonnes":1.01408,"ANNEE":"2022"},"geometry":{"type":"Point","coordinates":[-1.6418485,48.185481]}},{"type":"Feature","properties":{"ID_BAT":"3502417","CODE_INSEE":"35024","NOM_COM":"Betton","CODE_EPCI":"243500139","NOM_EPCI":"Rennes Métropole","NOM_BATI":"Maison De Bel Air","ADRESSE":"0","SURFACE":110,"RENOVATION":"Non","TYPE":"Résidentiel","CO2 en Tonnes":1.655424,"ANNEE":"2022"},"geometry":{"type":"Point","coordinates":[-1.6458351,48.1611266]}},{"type":"Feature","properties":{"ID_BAT":"3502418","CODE_INSEE":"35024","NOM_COM":"Betton","CODE_EPCI":"243500139","NOM_EPCI":"Rennes Métropole","NOM_BATI":"Local Kayak Et Cap","ADRESSE":"0","SURFACE":258,"RENOVATION":"Non","TYPE":"Sportif","CO2 en Tonnes":0.49824,"ANNEE":"2022"},"geometry":{"type":"Point","coordinates":[-1.6436832,48.1808548]}},{"type":"Feature","properties":{"ID_BAT":"3502419","CODE_INSEE":"35024","NOM_COM":"Betton","CODE_EPCI":"243500139","NOM_EPCI":"Rennes Métropole","NOM_BATI":"Maison Du Buisson","ADRESSE":"Le Buisson","SURFACE":70,"RENOVATION":"Non","TYPE":"Résidentiel","CO2 en Tonnes":0.118272,"ANNEE":"2022"},"geometry":{"type":"Point","coordinates":[-1.6410033,48.179579]}},{"type":"Feature","properties":{"ID_BAT":"3502420","CODE_INSEE":"35024","NOM_COM":"Betton","CODE_EPCI":"243500139","NOM_EPCI":"Rennes Métropole","NOM_BATI":"Maison Éclusière Des Brosses","ADRESSE":"Ecluse des Brosses","SURFACE":80,"RENOVATION":"Non","TYPE":"Résidentiel","CO2 en Tonnes":0.07808,"ANNEE":"2022"},"geometry":{"type":"Point","coordinates":[-1.63319,48.1966966]}},{"type":"Feature","properties":{"ID_BAT":"3502421","CODE_INSEE":"35024","NOM_COM":"Betton","CODE_EPCI":"243500139","NOM_EPCI":"Rennes Métropole","NOM_BATI":"Local Vtt Et Tir À L'arc","ADRESSE":"Av. Mozart","SURFACE":77,"RENOVATION":"Non","TYPE":"Sportif","CO2 en Tonnes":0.194304,"ANNEE":"2022"},"geometry":{"type":"Point","coordinates":[-1.6336586,48.1864378]}},{"type":"Feature","properties":{"ID_BAT":"3503201","CODE_INSEE":"35032","NOM_COM":"Bourgbarré","CODE_EPCI":"243500139","NOM_EPCI":"Rennes Métropole","NOM_BATI":"Centre De Loisirs","ADRESSE":"Rue Georges Brassens","SURFACE":385,"RENOVATION":"Non","TYPE":"Scolaire – enfance","CO2 en Tonnes":7.7892871,"ANNEE":"2022"},"geometry":{"type":"Point","coordinates":[-1.613793,47.9907461]}},{"type":"Feature","properties":{"ID_BAT":"3503202","CODE_INSEE":"35032","NOM_COM":"Bourgbarré","CODE_EPCI":"243500139","NOM_EPCI":"Rennes Métropole","NOM_BATI":"Restaurant Scolaire","ADRESSE":"8 Rue Frédéric Lanne","SURFACE":468,"RENOVATION":"Oui","TYPE":"Restauration","CO2 en Tonnes":14.38852,"ANNEE":"2022"},"geometry":{"type":"Point","coordinates":[-1.6140883,47.9923776]}},{"type":"Feature","properties":{"ID_BAT":"3503203","CODE_INSEE":"35032","NOM_COM":"Bourgbarré","CODE_EPCI":"243500139","NOM_EPCI":"Rennes Métropole","NOM_BATI":"Mairie","ADRESSE":"1 Rue des Sports","SURFACE":420,"RENOVATION":"Non","TYPE":"Administratif","CO2 en Tonnes":3.62656,"ANNEE":"2022"},"geometry":{"type":"Point","coordinates":[-1.6142691,47.9950944]}},{"type":"Feature","properties":{"ID_BAT":"3503204","CODE_INSEE":"35032","NOM_COM":"Bourgbarré","CODE_EPCI":"243500139","NOM_EPCI":"Rennes Métropole","NOM_BATI":"Salles Polyvalente Et De Sport","ADRESSE":"Rue Georges Brassens","SURFACE":1653,"RENOVATION":"Non","TYPE":"Socio-culturel","CO2 en Tonnes":72.362134,"ANNEE":"2022"},"geometry":{"type":"Point","coordinates":[-1.6169073,47.9904365]}},{"type":"Feature","properties":{"ID_BAT":"3503205","CODE_INSEE":"35032","NOM_COM":"Bourgbarré","CODE_EPCI":"243500139","NOM_EPCI":"Rennes Métropole","NOM_BATI":"Dômes De L'ise","ADRESSE":"Bel air","SURFACE":1180,"RENOVATION":"Non","TYPE":"Socio-culturel","CO2 en Tonnes":23.6906458,"ANNEE":"2022"},"geometry":{"type":"Point","coordinates":[-1.6088933,47.9929214]}},{"type":"Feature","properties":{"ID_BAT":"3503206","CODE_INSEE":"35032","NOM_COM":"Bourgbarré","CODE_EPCI":"243500139","NOM_EPCI":"Rennes Métropole","NOM_BATI":"Maison Des Associations","ADRESSE":"8 Rue de l'Ancienne Mairie","SURFACE":365,"RENOVATION":"Non","TYPE":"Scolaire – enfance","CO2 en Tonnes":13.7001904,"ANNEE":"2022"},"geometry":{"type":"Point","coordinates":[-1.6156129,47.9928745]}},{"type":"Feature","properties":{"ID_BAT":"3503207","CODE_INSEE":"35032","NOM_COM":"Bourgbarré","CODE_EPCI":"243500139","NOM_EPCI":"Rennes Métropole","NOM_BATI":"Ecole Maternelle","ADRESSE":"8 Rue Georges Brassens","SURFACE":912,"RENOVATION":"Non","TYPE":"Scolaire – enfance","CO2 en Tonnes":27.1819939,"ANNEE":"2022"},"geometry":{"type":"Point","coordinates":[-1.6141462,47.9914175]}},{"type":"Feature","properties":{"ID_BAT":"3503208","CODE_INSEE":"35032","NOM_COM":"Bourgbarré","CODE_EPCI":"243500139","NOM_EPCI":"Rennes Métropole","NOM_BATI":"Ecole Élementaire","ADRESSE":"Rue Georges Brassens","SURFACE":1408,"RENOVATION":"Non","TYPE":"Scolaire - enfance","CO2 en Tonnes":37.7596818,"ANNEE":"2022"},"geometry":{"type":"Point","coordinates":[-1.6149549,47.9904736]}},{"type":"Feature","properties":{"ID_BAT":"3503209","CODE_INSEE":"35032","NOM_COM":"Bourgbarré","CODE_EPCI":"243500139","NOM_EPCI":"Rennes Métropole","NOM_BATI":"Vestiaires Foot","ADRESSE":"10 Rue Frédéric Lanne","SURFACE":310,"RENOVATION":"Non","TYPE":"Sportif","CO2 en Tonnes":8.087935,"ANNEE":"2022"},"geometry":{"type":"Point","coordinates":[-1.6133967,47.9929948]}},{"type":"Feature","properties":{"ID_BAT":"3503210","CODE_INSEE":"35032","NOM_COM":"Bourgbarré","CODE_EPCI":"243500139","NOM_EPCI":"Rennes Métropole","NOM_BATI":"Bilbliothèque","ADRESSE":"Pl. de l'Église","SURFACE":193,"RENOVATION":"Non","TYPE":"Socio-culturel","CO2 en Tonnes":3.7904103,"ANNEE":"2022"},"geometry":{"type":"Point","coordinates":[-1.614999,47.994804]}},{"type":"Feature","properties":{"ID_BAT":"3503211","CODE_INSEE":"35032","NOM_COM":"Bourgbarré","CODE_EPCI":"243500139","NOM_EPCI":"Rennes Métropole","NOM_BATI":"Salles De Réunions","ADRESSE":"Place des Anciens Combattants","SURFACE":190,"RENOVATION":"Non","TYPE":"Socio-culturel","CO2 en Tonnes":2.186719,"ANNEE":"2022"},"geometry":{"type":"Point","coordinates":[-1.6148652,47.9949122]}},{"type":"Feature","properties":{"ID_BAT":"3503901","CODE_INSEE":"35039","NOM_COM":"Brécé","CODE_EPCI":"243500139","NOM_EPCI":"Rennes Métropole","NOM_BATI":"Salle Des Sports","ADRESSE":"3 Rue du Languedoc","SURFACE":1615,"RENOVATION":"Non","TYPE":"Sportif","CO2 en Tonnes":3.285824,"ANNEE":"2022"},"geometry":{"type":"Point","coordinates":[-1.4843338,48.1065347]}},{"type":"Feature","properties":{"ID_BAT":"3503902","CODE_INSEE":"35039","NOM_COM":"Brécé","CODE_EPCI":"243500139","NOM_EPCI":"Rennes Métropole","NOM_BATI":"Groupe Scolaire","ADRESSE":"Rue des Quatre Vents","SURFACE":1974,"RENOVATION":"Non","TYPE":"Scolaire – enfance","CO2 en Tonnes":34.784628,"ANNEE":"2022"},"geometry":{"type":"Point","coordinates":[-1.4843423,48.1105976]}},{"type":"Feature","properties":{"ID_BAT":"3503903","CODE_INSEE":"35039","NOM_COM":"Brécé","CODE_EPCI":"243500139","NOM_EPCI":"Rennes Métropole","NOM_BATI":"Atelier Municipal","ADRESSE":"1 Rue de la Loirie","SURFACE":512,"RENOVATION":"Non","TYPE":"Technique","CO2 en Tonnes":3.3532487,"ANNEE":"2022"},"geometry":{"type":"Point","coordinates":[-1.480963,48.106049]}},{"type":"Feature","properties":{"ID_BAT":"3503904","CODE_INSEE":"35039","NOM_COM":"Brécé","CODE_EPCI":"243500139","NOM_EPCI":"Rennes Métropole","NOM_BATI":"Maison De L'abbé Sottin","ADRESSE":"rue d'anjou","SURFACE":225,"RENOVATION":"Non","TYPE":"Autre","CO2 en Tonnes":4.0418875,"ANNEE":"2022"},"geometry":{"type":"Point","coordinates":[-1.4808007,48.1106444]}},{"type":"Feature","properties":{"ID_BAT":"3503905","CODE_INSEE":"35039","NOM_COM":"Brécé","CODE_EPCI":"243500139","NOM_EPCI":"Rennes Métropole","NOM_BATI":"Cantine Scolaire","ADRESSE":"5 rue du moulin","SURFACE":540,"RENOVATION":"Non","TYPE":"Restauration","CO2 en Tonnes":21.5900309,"ANNEE":"2022"},"geometry":{"type":"Point","coordinates":[-1.4847679,48.1112625]}},{"type":"Feature","properties":{"ID_BAT":"3503906","CODE_INSEE":"35039","NOM_COM":"Brécé","CODE_EPCI":"243500139","NOM_EPCI":"Rennes Métropole","NOM_BATI":"Mairie","ADRESSE":"6 Rue de Rennes","SURFACE":523,"RENOVATION":"Non","TYPE":"Administratif","CO2 en Tonnes":14.6756251,"ANNEE":"2022"},"geometry":{"type":"Point","coordinates":[-1.4828555,48.1105729]}},{"type":"Feature","properties":{"ID_BAT":"3503908","CODE_INSEE":"35039","NOM_COM":"Brécé","CODE_EPCI":"243500139","NOM_EPCI":"Rennes Métropole","NOM_BATI":"Maison De La Jeunesse","ADRESSE":"All. Pierre Jan","SURFACE":791,"RENOVATION":"Non","TYPE":"Scolaire - enfance","CO2 en Tonnes":8.5271825,"ANNEE":"2022"},"geometry":{"type":"Point","coordinates":[-1.4841409,48.1111928]}},{"type":"Feature","properties":{"ID_BAT":"3503909","CODE_INSEE":"35039","NOM_COM":"Brécé","CODE_EPCI":"243500139","NOM_EPCI":"Rennes Métropole","NOM_BATI":"Mediatheque","ADRESSE":"2 Rue des Quatre Vents","SURFACE":562,"RENOVATION":"Non","TYPE":"Socio-culturel","CO2 en Tonnes":8.1953811,"ANNEE":"2022"},"geometry":{"type":"Point","coordinates":[-1.483894,48.1105089]}},{"type":"Feature","properties":{"ID_BAT":"3504701","CODE_INSEE":"35047","NOM_COM":"Bruz","CODE_EPCI":"243500139","NOM_EPCI":"Rennes Métropole","NOM_BATI":"Hôtel De Ville","ADRESSE":"Pl. du Dr Joly","SURFACE":2570,"RENOVATION":"Non","TYPE":"Administratif","CO2 en Tonnes":55.5797491,"ANNEE":"2022"},"geometry":{"type":"Point","coordinates":[-1.7461806,48.0244478]}},{"type":"Feature","properties":{"ID_BAT":"3504702","CODE_INSEE":"35047","NOM_COM":"Bruz","CODE_EPCI":"243500139","NOM_EPCI":"Rennes Métropole","NOM_BATI":"Espace Simone Veil","ADRESSE":"Rue des Planches","SURFACE":2360,"RENOVATION":"Non","TYPE":"Socio-culturel","CO2 en Tonnes":49.923156,"ANNEE":"2022"},"geometry":{"type":"Point","coordinates":[-1.7515332,48.0226339]}},{"type":"Feature","properties":{"ID_BAT":"3504703","CODE_INSEE":"35047","NOM_COM":"Bruz","CODE_EPCI":"243500139","NOM_EPCI":"Rennes Métropole","NOM_BATI":"Maison Des Enfants 1 Et 2","ADRESSE":"5 Av. Alphonse Legault","SURFACE":1598,"RENOVATION":"Oui","TYPE":"Scolaire – enfance","CO2 en Tonnes":19.2001942,"ANNEE":"2022"},"geometry":{"type":"Point","coordinates":[-1.7446677,48.0260428]}},{"type":"Feature","properties":{"ID_BAT":"3504704","CODE_INSEE":"35047","NOM_COM":"Bruz","CODE_EPCI":"243500139","NOM_EPCI":"Rennes Métropole","NOM_BATI":"Groupe Scolaire Jacques Prévert","ADRESSE":"2 Rue Emile Després","SURFACE":3610,"RENOVATION":"Non","TYPE":"Scolaire – enfance","CO2 en Tonnes":102.6936813,"ANNEE":"2022"},"geometry":{"type":"Point","coordinates":[-1.7476524,48.026398]}},{"type":"Feature","properties":{"ID_BAT":"3504705","CODE_INSEE":"35047","NOM_COM":"Bruz","CODE_EPCI":"243500139","NOM_EPCI":"Rennes Métropole","NOM_BATI":"Groupe Scolaire Du Champ L'evêque","ADRESSE":"53 Rue Duguesclin","SURFACE":3203,"RENOVATION":"Non","TYPE":"Scolaire – enfance","CO2 en Tonnes":65.16478,"ANNEE":"2022"},"geometry":{"type":"Point","coordinates":[-1.7382381,48.0226539]}},{"type":"Feature","properties":{"ID_BAT":"3504706","CODE_INSEE":"35047","NOM_COM":"Bruz","CODE_EPCI":"243500139","NOM_EPCI":"Rennes Métropole","NOM_BATI":"Groupe Scolaire Du Vert Buisson","ADRESSE":"2 Rue de Gavrinis","SURFACE":3000,"RENOVATION":"Non","TYPE":"Scolaire – enfance","CO2 en Tonnes":70.7033729,"ANNEE":"2022"},"geometry":{"type":"Point","coordinates":[-1.7564966,48.0300896]}},{"type":"Feature","properties":{"ID_BAT":"3504707","CODE_INSEE":"35047","NOM_COM":"Bruz","CODE_EPCI":"243500139","NOM_EPCI":"Rennes Métropole","NOM_BATI":"Espace Vau Gaillard","ADRESSE":"Av. Alphonse Legault","SURFACE":818,"RENOVATION":"Non","TYPE":"Socio-culturel","CO2 en Tonnes":17.9506264,"ANNEE":"2022"},"geometry":{"type":"Point","coordinates":[-1.7448684,48.0265606]}},{"type":"Feature","properties":{"ID_BAT":"3504708","CODE_INSEE":"35047","NOM_COM":"Bruz","CODE_EPCI":"243500139","NOM_EPCI":"Rennes Métropole","NOM_BATI":"Maison Des Associations","ADRESSE":"59 Av. Alphonse Legault","SURFACE":2146,"RENOVATION":"Oui","TYPE":"Socio-culturel","CO2 en Tonnes":19.6679255,"ANNEE":"2022"},"geometry":{"type":"Point","coordinates":[-1.7373641,48.0263132]}},{"type":"Feature","properties":{"ID_BAT":"3504709","CODE_INSEE":"35047","NOM_COM":"Bruz","CODE_EPCI":"243500139","NOM_EPCI":"Rennes Métropole","NOM_BATI":"Halle 2","ADRESSE":"13 Pl. du Vert Buisson","SURFACE":940,"RENOVATION":"Non","TYPE":"Socio-culturel","CO2 en Tonnes":7.5870574,"ANNEE":"2022"},"geometry":{"type":"Point","coordinates":[-1.7574395,48.0294632]}},{"type":"Feature","properties":{"ID_BAT":"3504710","CODE_INSEE":"35047","NOM_COM":"Bruz","CODE_EPCI":"243500139","NOM_EPCI":"Rennes Métropole","NOM_BATI":"Halle Pagnol","ADRESSE":"9 Pl. Marcel Pagnol","SURFACE":800,"RENOVATION":"Non","TYPE":"Socio-culturel","CO2 en Tonnes":3.998016,"ANNEE":"2022"},"geometry":{"type":"Point","coordinates":[-1.7451093,48.0245707]}},{"type":"Feature","properties":{"ID_BAT":"3504711","CODE_INSEE":"35047","NOM_COM":"Bruz","CODE_EPCI":"243500139","NOM_EPCI":"Rennes Métropole","NOM_BATI":"Salle De Sport Colette Besson","ADRESSE":"rue du Lycée","SURFACE":1975,"RENOVATION":"Non","TYPE":"Sportif","CO2 en Tonnes":41.2134988,"ANNEE":"2022"},"geometry":{"type":"Point","coordinates":[-1.7364978,48.0332657]}},{"type":"Feature","properties":{"ID_BAT":"3504712","CODE_INSEE":"35047","NOM_COM":"Bruz","CODE_EPCI":"243500139","NOM_EPCI":"Rennes Métropole","NOM_BATI":"Site \"Stade Belliard\"","ADRESSE":"Rue Pierre de Coubertin","SURFACE":10902,"RENOVATION":"Non","TYPE":"Sportif","CO2 en Tonnes":215.7943084,"ANNEE":"2022"},"geometry":{"type":"Point","coordinates":[-1.7421894,48.030588]}},{"type":"Feature","properties":{"ID_BAT":"3504713","CODE_INSEE":"35047","NOM_COM":"Bruz","CODE_EPCI":"243500139","NOM_EPCI":"Rennes Métropole","NOM_BATI":"Salle D'activités Du Vert Buisson","ADRESSE":"Av. de Cezembre","SURFACE":654,"RENOVATION":"Non","TYPE":"Sportif","CO2 en Tonnes":11.7386257,"ANNEE":"2022"},"geometry":{"type":"Point","coordinates":[-1.7547854,48.0295663]}},{"type":"Feature","properties":{"ID_BAT":"3504714","CODE_INSEE":"35047","NOM_COM":"Bruz","CODE_EPCI":"243500139","NOM_EPCI":"Rennes Métropole","NOM_BATI":"Centre Culturel Du Grand Logis","ADRESSE":"10 Av. du Général de Gaulle","SURFACE":4505,"RENOVATION":"Non","TYPE":"Socio-culturel","CO2 en Tonnes":176.9361837,"ANNEE":"2022"},"geometry":{"type":"Point","coordinates":[-1.7448138,48.0231048]}},{"type":"Feature","properties":{"ID_BAT":"3504715","CODE_INSEE":"35047","NOM_COM":"Bruz","CODE_EPCI":"243500139","NOM_EPCI":"Rennes Métropole","NOM_BATI":"Services Techniques (Ancien Bâtiment)","ADRESSE":"Le Grand Pâtis","SURFACE":2100,"RENOVATION":"Non","TYPE":"Socio-culturel","CO2 en Tonnes":0.717632,"ANNEE":"2022"},"geometry":{"type":"Point","coordinates":[-1.7434771,48.0180383]}},{"type":"Feature","properties":{"ID_BAT":"3504716","CODE_INSEE":"35047","NOM_COM":"Bruz","CODE_EPCI":"243500139","NOM_EPCI":"Rennes Métropole","NOM_BATI":"Services Techniques (Nouveau Bâtiment)","ADRESSE":"16 rue de l'Éperon Doré","SURFACE":1404,"RENOVATION":"Oui","TYPE":"Technique","CO2 en Tonnes":3.660672,"ANNEE":"2022"},"geometry":{"type":"Point","coordinates":[-1.7406738,48.0401011]}},{"type":"Feature","properties":{"ID_BAT":"3504717","CODE_INSEE":"35047","NOM_COM":"Bruz","CODE_EPCI":"243500139","NOM_EPCI":"Rennes Métropole","NOM_BATI":"Cuisine Centrale","ADRESSE":"rue de l'Éperon Doré","SURFACE":650,"RENOVATION":"Non","TYPE":"Restauration","CO2 en Tonnes":58.5012758,"ANNEE":"2022"},"geometry":{"type":"Point","coordinates":[-1.74216,48.03788]}},{"type":"Feature","properties":{"ID_BAT":"3504718","CODE_INSEE":"35047","NOM_COM":"Bruz","CODE_EPCI":"243500139","NOM_EPCI":"Rennes Métropole","NOM_BATI":"Logements","ADRESSE":"0","SURFACE":1003,"RENOVATION":"Non","TYPE":"Résidentiel","CO2 en Tonnes":58.698956,"ANNEE":"2022"},"geometry":{"type":"Point","coordinates":[-1.7471175,48.024471]}},{"type":"Feature","properties":{"ID_BAT":"3504719","CODE_INSEE":"35047","NOM_COM":"Bruz","CODE_EPCI":"243500139","NOM_EPCI":"Rennes Métropole","NOM_BATI":"Eglise","ADRESSE":"Pl. du Chanoine Roullin","SURFACE":1111,"RENOVATION":"Non","TYPE":"Cultuel","CO2 en Tonnes":8.8050688,"ANNEE":"2022"},"geometry":{"type":"Point","coordinates":[-1.7483496,48.0240823]}},{"type":"Feature","properties":{"ID_BAT":"3505501","CODE_INSEE":"35055","NOM_COM":"Chantepie","CODE_EPCI":"243500139","NOM_EPCI":"Rennes Métropole","NOM_BATI":"Groupe Scolaire Des Deux Ruisseaux","ADRESSE":"Av. des Meliettes","SURFACE":2260,"RENOVATION":"Non","TYPE":"Scolaire – enfance","CO2 en Tonnes":72.7054967,"ANNEE":"2022"},"geometry":{"type":"Point","coordinates":[-1.6185124,48.0850163]}},{"type":"Feature","properties":{"ID_BAT":"3505502","CODE_INSEE":"35055","NOM_COM":"Chantepie","CODE_EPCI":"243500139","NOM_EPCI":"Rennes Métropole","NOM_BATI":"Groupe Scolaire Des Landes","ADRESSE":"11 Rue des Landes","SURFACE":3793,"RENOVATION":"Non","TYPE":"Scolaire – enfance","CO2 en Tonnes":89.8201442,"ANNEE":"2022"},"geometry":{"type":"Point","coordinates":[-1.620164,48.0898707]}},{"type":"Feature","properties":{"ID_BAT":"3505503","CODE_INSEE":"35055","NOM_COM":"Chantepie","CODE_EPCI":"243500139","NOM_EPCI":"Rennes Métropole","NOM_BATI":"Maison Pour Tous","ADRESSE":"86 Av. André Bonnin","SURFACE":1194,"RENOVATION":"Non","TYPE":"Socio-culturel","CO2 en Tonnes":35.4955731,"ANNEE":"2022"},"geometry":{"type":"Point","coordinates":[-1.6165402,48.0868277]}},{"type":"Feature","properties":{"ID_BAT":"3505504","CODE_INSEE":"35055","NOM_COM":"Chantepie","CODE_EPCI":"243500139","NOM_EPCI":"Rennes Métropole","NOM_BATI":"Centre Technique","ADRESSE":"rue René Cassin","SURFACE":1789,"RENOVATION":"Non","TYPE":"Technique","CO2 en Tonnes":20.9907506,"ANNEE":"2022"},"geometry":{"type":"Point","coordinates":[-1.6238221,48.0928556]}},{"type":"Feature","properties":{"ID_BAT":"3505505","CODE_INSEE":"35055","NOM_COM":"Chantepie","CODE_EPCI":"243500139","NOM_EPCI":"Rennes Métropole","NOM_BATI":"Ecole De Musique &  Danse","ADRESSE":"25 Av. André Bonnin","SURFACE":1070,"RENOVATION":"Oui","TYPE":"Socio-culturel","CO2 en Tonnes":11.1640757,"ANNEE":"2022"},"geometry":{"type":"Point","coordinates":[-1.6226548,48.0902118]}},{"type":"Feature","properties":{"ID_BAT":"3505506","CODE_INSEE":"35055","NOM_COM":"Chantepie","CODE_EPCI":"243500139","NOM_EPCI":"Rennes Métropole","NOM_BATI":"Maison Des Associations","ADRESSE":"4 Rue de la Chalotais","SURFACE":674,"RENOVATION":"Non","TYPE":"Socio-culturel","CO2 en Tonnes":9.4570066,"ANNEE":"2022"},"geometry":{"type":"Point","coordinates":[-1.6230736,48.0856187]}},{"type":"Feature","properties":{"ID_BAT":"3505510","CODE_INSEE":"35055","NOM_COM":"Chantepie","CODE_EPCI":"243500139","NOM_EPCI":"Rennes Métropole","NOM_BATI":"Complexe 2 Ruisseaux","ADRESSE":"19 Av. des 2 Ruisseaux","SURFACE":3143,"RENOVATION":"Non","TYPE":"Sportif","CO2 en Tonnes":80.2038084,"ANNEE":"2022"},"geometry":{"type":"Point","coordinates":[-1.6217547,48.0870469]}},{"type":"Feature","properties":{"ID_BAT":"3505511","CODE_INSEE":"35055","NOM_COM":"Chantepie","CODE_EPCI":"243500139","NOM_EPCI":"Rennes Métropole","NOM_BATI":"Atrium & Kiosque","ADRESSE":"Av. des Meliettes","SURFACE":1430,"RENOVATION":"Non","TYPE":"Socio-culturel","CO2 en Tonnes":31.5311038,"ANNEE":"2022"},"geometry":{"type":"Point","coordinates":[-1.621785,48.086044]}},{"type":"Feature","properties":{"ID_BAT":"3505512","CODE_INSEE":"35055","NOM_COM":"Chantepie","CODE_EPCI":"243500139","NOM_EPCI":"Rennes Métropole","NOM_BATI":"Vestiaires Foot","ADRESSE":"All. du Stade","SURFACE":335,"RENOVATION":"Non","TYPE":"Sportif","CO2 en Tonnes":13.4295998,"ANNEE":"2022"},"geometry":{"type":"Point","coordinates":[-1.619969,48.0920886]}},{"type":"Feature","properties":{"ID_BAT":"3505513","CODE_INSEE":"35055","NOM_COM":"Chantepie","CODE_EPCI":"243500139","NOM_EPCI":"Rennes Métropole","NOM_BATI":"R. Allain","ADRESSE":"All. du Stade","SURFACE":1989,"RENOVATION":"Non","TYPE":"Sportif","CO2 en Tonnes":2.4430752,"ANNEE":"2022"},"geometry":{"type":"Point","coordinates":[-1.6203226,48.0922849]}},{"type":"Feature","properties":{"ID_BAT":"3505514","CODE_INSEE":"35055","NOM_COM":"Chantepie","CODE_EPCI":"243500139","NOM_EPCI":"Rennes Métropole","NOM_BATI":"Salle Coubertin","ADRESSE":"All. du Stade","SURFACE":3056,"RENOVATION":"Non","TYPE":"Sportif","CO2 en Tonnes":67.2712475,"ANNEE":"2022"},"geometry":{"type":"Point","coordinates":[-1.6210739,48.0931514]}},{"type":"Feature","properties":{"ID_BAT":"3505515","CODE_INSEE":"35055","NOM_COM":"Chantepie","CODE_EPCI":"243500139","NOM_EPCI":"Rennes Métropole","NOM_BATI":"Mairie","ADRESSE":"Place des Marelles","SURFACE":1191,"RENOVATION":"Oui","TYPE":"Administratif","CO2 en Tonnes":22.8616178,"ANNEE":"2022"},"geometry":{"type":"Point","coordinates":[-1.6204222,48.0884421]}},{"type":"Feature","properties":{"ID_BAT":"3505516","CODE_INSEE":"35055","NOM_COM":"Chantepie","CODE_EPCI":"243500139","NOM_EPCI":"Rennes Métropole","NOM_BATI":"Bureaux Annexes","ADRESSE":"Place des Marelles","SURFACE":493,"RENOVATION":"Non","TYPE":"Administratif","CO2 en Tonnes":1.323648,"ANNEE":"2022"},"geometry":{"type":"Point","coordinates":[-1.6209941,48.0885372]}},{"type":"Feature","properties":{"ID_BAT":"3506601","CODE_INSEE":"35066","NOM_COM":"Chartres-de-Bretagne","CODE_EPCI":"243500139","NOM_EPCI":"Rennes Métropole","NOM_BATI":"Ehpad","ADRESSE":"19 RUE DE LA POTERIE","SURFACE":4200,"RENOVATION":"Non","TYPE":"Médico-social","CO2 en Tonnes":118.0094085,"ANNEE":"2022"},"geometry":{"type":"Point","coordinates":[-1.7088614,48.0426209]}},{"type":"Feature","properties":{"ID_BAT":"3506602","CODE_INSEE":"35066","NOM_COM":"Chartres-de-Bretagne","CODE_EPCI":"243500139","NOM_EPCI":"Rennes Métropole","NOM_BATI":"Centre Culturel","ADRESSE":"1 RUE DE LA CONTERIE","SURFACE":4260,"RENOVATION":"Oui","TYPE":"Socio-culturel","CO2 en Tonnes":46.143696,"ANNEE":"2022"},"geometry":{"type":"Point","coordinates":[-1.695683,48.0417154]}},{"type":"Feature","properties":{"ID_BAT":"3506603","CODE_INSEE":"35066","NOM_COM":"Chartres-de-Bretagne","CODE_EPCI":"243500139","NOM_EPCI":"Rennes Métropole","NOM_BATI":"Halle De La Conterie","ADRESSE":"5  RUE LEO LAGRANGE","SURFACE":1570,"RENOVATION":"Non","TYPE":"Socio-culturel","CO2 en Tonnes":9.2942945,"ANNEE":"2022"},"geometry":{"type":"Point","coordinates":[-1.6913717,48.0393465]}},{"type":"Feature","properties":{"ID_BAT":"3506604","CODE_INSEE":"35066","NOM_COM":"Chartres-de-Bretagne","CODE_EPCI":"243500139","NOM_EPCI":"Rennes Métropole","NOM_BATI":"Mairie","ADRESSE":"ESPLANADE DES DROITS DE L HOMME","SURFACE":1580,"RENOVATION":"Non","TYPE":"Administratif","CO2 en Tonnes":26.9785122,"ANNEE":"2022"},"geometry":{"type":"Point","coordinates":[-1.7071148,48.0409636]}},{"type":"Feature","properties":{"ID_BAT":"3506605","CODE_INSEE":"35066","NOM_COM":"Chartres-de-Bretagne","CODE_EPCI":"243500139","NOM_EPCI":"Rennes Métropole","NOM_BATI":"Restaurant De L'auditoire","ADRESSE":"PLACE DE L AUDITOIRE","SURFACE":910,"RENOVATION":"Non","TYPE":"Restauration","CO2 en Tonnes":26.0481554,"ANNEE":"2022"},"geometry":{"type":"Point","coordinates":[-1.7026584,48.0426067]}},{"type":"Feature","properties":{"ID_BAT":"3506606","CODE_INSEE":"35066","NOM_COM":"Chartres-de-Bretagne","CODE_EPCI":"243500139","NOM_EPCI":"Rennes Métropole","NOM_BATI":"Halle Des Sports","ADRESSE":"22 RUE DE LA FORGE","SURFACE":2150,"RENOVATION":"Oui","TYPE":"Sportif","CO2 en Tonnes":27.7026824,"ANNEE":"2022"},"geometry":{"type":"Point","coordinates":[-1.698016,48.0429577]}},{"type":"Feature","properties":{"ID_BAT":"3506607","CODE_INSEE":"35066","NOM_COM":"Chartres-de-Bretagne","CODE_EPCI":"243500139","NOM_EPCI":"Rennes Métropole","NOM_BATI":"Complexe Sportif","ADRESSE":"12 RUE LA CROIX AUX POTIERS","SURFACE":4800,"RENOVATION":"Oui","TYPE":"Sportif","CO2 en Tonnes":131.2390707,"ANNEE":"2022"},"geometry":{"type":"Point","coordinates":[-1.7063608,48.0465375]}},{"type":"Feature","properties":{"ID_BAT":"3506608","CODE_INSEE":"35066","NOM_COM":"Chartres-de-Bretagne","CODE_EPCI":"243500139","NOM_EPCI":"Rennes Métropole","NOM_BATI":"Gs Brocéliande","ADRESSE":"AVENUE DE BROCELIANDE","SURFACE":2300,"RENOVATION":"Non","TYPE":"Scolaire - enfance","CO2 en Tonnes":65.8520727,"ANNEE":"2022"},"geometry":{"type":"Point","coordinates":[-1.7027549,48.0362613]}},{"type":"Feature","properties":{"ID_BAT":"3506609","CODE_INSEE":"35066","NOM_COM":"Chartres-de-Bretagne","CODE_EPCI":"243500139","NOM_EPCI":"Rennes Métropole","NOM_BATI":"Maison Des Associations","ADRESSE":"14 RUE DE LA CROIX AUX POTIERS","SURFACE":580,"RENOVATION":"Non","TYPE":"Socio-culturel","CO2 en Tonnes":9.0155388,"ANNEE":"2022"},"geometry":{"type":"Point","coordinates":[-1.7082347,48.0467119]}},{"type":"Feature","properties":{"ID_BAT":"3506610","CODE_INSEE":"35066","NOM_COM":"Chartres-de-Bretagne","CODE_EPCI":"243500139","NOM_EPCI":"Rennes Métropole","NOM_BATI":"Gs Auditoire","ADRESSE":"4 RUE ANTOINE CHATEL","SURFACE":2790,"RENOVATION":"Oui","TYPE":"Scolaire - enfance","CO2 en Tonnes":81.5110985,"ANNEE":"2022"},"geometry":{"type":"Point","coordinates":[-1.7017153,48.0413096]}},{"type":"Feature","properties":{"ID_BAT":"3506612","CODE_INSEE":"35066","NOM_COM":"Chartres-de-Bretagne","CODE_EPCI":"243500139","NOM_EPCI":"Rennes Métropole","NOM_BATI":"Gs Auditoire - Rased","ADRESSE":"RUE ANTOINE CHATEL","SURFACE":320,"RENOVATION":"Non","TYPE":"Scolaire - enfance","CO2 en Tonnes":5.3732214,"ANNEE":"2022"},"geometry":{"type":"Point","coordinates":[-1.7015871,48.0414894]}},{"type":"Feature","properties":{"ID_BAT":"3506613","CODE_INSEE":"35066","NOM_COM":"Chartres-de-Bretagne","CODE_EPCI":"243500139","NOM_EPCI":"Rennes Métropole","NOM_BATI":"Espace Brocéliande","ADRESSE":"11 AVENUE DE BROCELIANDE","SURFACE":2250,"RENOVATION":"Non","TYPE":"Socio-culturel","CO2 en Tonnes":92.496041,"ANNEE":"2022"},"geometry":{"type":"Point","coordinates":[-1.7004998,48.0366795]}},{"type":"Feature","properties":{"ID_BAT":"3506614","CODE_INSEE":"35066","NOM_COM":"Chartres-de-Bretagne","CODE_EPCI":"243500139","NOM_EPCI":"Rennes Métropole","NOM_BATI":"Centre Technique","ADRESSE":"2 ALLEE VINCENT VAN GOGH","SURFACE":1550,"RENOVATION":"Non","TYPE":"Technique","CO2 en Tonnes":10.7265538,"ANNEE":"2022"},"geometry":{"type":"Point","coordinates":[-1.7023676,48.0343082]}},{"type":"Feature","properties":{"ID_BAT":"3506615","CODE_INSEE":"35066","NOM_COM":"Chartres-de-Bretagne","CODE_EPCI":"243500139","NOM_EPCI":"Rennes Métropole","NOM_BATI":"Centre Jean Jaures","ADRESSE":"37 RUE DE LA POTERIE - CMS","SURFACE":1450,"RENOVATION":"Non","TYPE":"Administratif","CO2 en Tonnes":35.9957362,"ANNEE":"2022"},"geometry":{"type":"Point","coordinates":[-1.7059493,48.0424564]}},{"type":"Feature","properties":{"ID_BAT":"3506616","CODE_INSEE":"35066","NOM_COM":"Chartres-de-Bretagne","CODE_EPCI":"243500139","NOM_EPCI":"Rennes Métropole","NOM_BATI":"Centre De Loisirs","ADRESSE":"LA LONGUE HAIE","SURFACE":330,"RENOVATION":"Non","TYPE":"Scolaire - enfance","CO2 en Tonnes":5.6961381,"ANNEE":"2022"},"geometry":{"type":"Point","coordinates":[-1.6954027,48.038863]}},{"type":"Feature","properties":{"ID_BAT":"3506617","CODE_INSEE":"35066","NOM_COM":"Chartres-de-Bretagne","CODE_EPCI":"243500139","NOM_EPCI":"Rennes Métropole","NOM_BATI":"Ferme Des Peupliers","ADRESSE":"4 RUE JEAN-MARIE ECORCHARD","SURFACE":322,"RENOVATION":"Non","TYPE":"Socio-culturel","CO2 en Tonnes":8.3548207,"ANNEE":"2022"},"geometry":{"type":"Point","coordinates":[-1.7060431,48.0283612]}},{"type":"Feature","properties":{"ID_BAT":"3506618","CODE_INSEE":"35066","NOM_COM":"Chartres-de-Bretagne","CODE_EPCI":"243500139","NOM_EPCI":"Rennes Métropole","NOM_BATI":"Epicerie Sociale - Boulodrome","ADRESSE":"AVENUE CONSTANT MEREL","SURFACE":800,"RENOVATION":"Non","TYPE":"Sportif","CO2 en Tonnes":11.6415727,"ANNEE":"2022"},"geometry":{"type":"Point","coordinates":[-1.7074424,48.0361317]}},{"type":"Feature","properties":{"ID_BAT":"3506619","CODE_INSEE":"35066","NOM_COM":"Chartres-de-Bretagne","CODE_EPCI":"243500139","NOM_EPCI":"Rennes Métropole","NOM_BATI":"Serres Municipales","ADRESSE":"LE CHAMP ROND","SURFACE":300,"RENOVATION":"Non","TYPE":"Technique","CO2 en Tonnes":16.0687774,"ANNEE":"2022"},"geometry":{"type":"Point","coordinates":[-1.6926249,48.0429087]}},{"type":"Feature","properties":{"ID_BAT":"3506620","CODE_INSEE":"35066","NOM_COM":"Chartres-de-Bretagne","CODE_EPCI":"243500139","NOM_EPCI":"Rennes Métropole","NOM_BATI":"Pôle Solidarité","ADRESSE":"RUE DE SAINT-ANTHEME","SURFACE":150,"RENOVATION":"Non","TYPE":"Administratif","CO2 en Tonnes":0.560512,"ANNEE":"2022"},"geometry":{"type":"Point","coordinates":[-1.707384,48.0407521]}},{"type":"Feature","properties":{"ID_BAT":"3506621","CODE_INSEE":"35066","NOM_COM":"Chartres-de-Bretagne","CODE_EPCI":"243500139","NOM_EPCI":"Rennes Métropole","NOM_BATI":"Salle De Tennis","ADRESSE":"ALLEE DES TENNIS","SURFACE":1500,"RENOVATION":"Non","TYPE":"Sportif","CO2 en Tonnes":1.437632,"ANNEE":"2022"},"geometry":{"type":"Point","coordinates":[-1.7039758,48.0454338]}},{"type":"Feature","properties":{"ID_BAT":"3506701","CODE_INSEE":"35067","NOM_COM":"Chasné-sur-Illet","CODE_EPCI":"243500774","NOM_EPCI":"CC Liffré-Cormier Communauté","NOM_BATI":"Mairie","ADRESSE":"LA PORTE PILET","SURFACE":338,"RENOVATION":"Non","TYPE":"Administratif","CO2 en Tonnes":1.584576,"ANNEE":"2022"},"geometry":{"type":"Point","coordinates":[-1.5650466,48.2371354]}},{"type":"Feature","properties":{"ID_BAT":"3506702","CODE_INSEE":"35067","NOM_COM":"Chasné-sur-Illet","CODE_EPCI":"243500774","NOM_EPCI":"CC Liffré-Cormier Communauté","NOM_BATI":"Groupe Scolaire","ADRESSE":"10 RUE DE L'ECOLE","SURFACE":1529,"RENOVATION":"Non","TYPE":"Scolaire – enfance","CO2 en Tonnes":59.7377818,"ANNEE":"2022"},"geometry":{"type":"Point","coordinates":[-1.5620187,48.241423]}},{"type":"Feature","properties":{"ID_BAT":"3506703","CODE_INSEE":"35067","NOM_COM":"Chasné-sur-Illet","CODE_EPCI":"243500774","NOM_EPCI":"CC Liffré-Cormier Communauté","NOM_BATI":"Nouveau Restaurant Scolaire","ADRESSE":"11 RUE DE L'ECOLE","SURFACE":291,"RENOVATION":"Non","TYPE":"Restauration","CO2 en Tonnes":3.221632,"ANNEE":"2022"},"geometry":{"type":"Point","coordinates":[-1.5621956,48.2418108]}},{"type":"Feature","properties":{"ID_BAT":"3506704","CODE_INSEE":"35067","NOM_COM":"Chasné-sur-Illet","CODE_EPCI":"243500774","NOM_EPCI":"CC Liffré-Cormier Communauté","NOM_BATI":"Maison Intercommunale","ADRESSE":"1 PLACE DE L'EGLISE","SURFACE":402,"RENOVATION":"Non","TYPE":"Scolaire – enfance","CO2 en Tonnes":1.991168,"ANNEE":"2022"},"geometry":{"type":"Point","coordinates":[-1.5629462,48.2424287]}},{"type":"Feature","properties":{"ID_BAT":"3506705","CODE_INSEE":"35067","NOM_COM":"Chasné-sur-Illet","CODE_EPCI":"243500774","NOM_EPCI":"CC Liffré-Cormier Communauté","NOM_BATI":"Maison Des Services","ADRESSE":"5 RUE DE L'ECOLE","SURFACE":223,"RENOVATION":"Non","TYPE":"Socio-culturel","CO2 en Tonnes":1.00288,"ANNEE":"2022"},"geometry":{"type":"Point","coordinates":[-1.5611568,48.2426043]}},{"type":"Feature","properties":{"ID_BAT":"3506706","CODE_INSEE":"35067","NOM_COM":"Chasné-sur-Illet","CODE_EPCI":"243500774","NOM_EPCI":"CC Liffré-Cormier Communauté","NOM_BATI":"Salle Des Moissons","ADRESSE":"25 RUE DE L'ECOLE","SURFACE":423,"RENOVATION":"Non","TYPE":"Socio-culturel","CO2 en Tonnes":0.935232,"ANNEE":"2022"},"geometry":{"type":"Point","coordinates":[-1.5611825,48.2412813]}},{"type":"Feature","properties":{"ID_BAT":"3506707","CODE_INSEE":"35067","NOM_COM":"Chasné-sur-Illet","CODE_EPCI":"243500774","NOM_EPCI":"CC Liffré-Cormier Communauté","NOM_BATI":"Atelier Technique","ADRESSE":"8B RUE DE LA FORET","SURFACE":547,"RENOVATION":"Non","TYPE":"Technique","CO2 en Tonnes":0.753216,"ANNEE":"2022"},"geometry":{"type":"Point","coordinates":[-1.5606682,48.2426792]}},{"type":"Feature","properties":{"ID_BAT":"3506708","CODE_INSEE":"35067","NOM_COM":"Chasné-sur-Illet","CODE_EPCI":"243500774","NOM_EPCI":"CC Liffré-Cormier Communauté","NOM_BATI":"Bibliotheque","ADRESSE":"12 BIS RUE DE L'ECOLE","SURFACE":175,"RENOVATION":"Non","TYPE":"Socio-culturel","CO2 en Tonnes":0.288704,"ANNEE":"2022"},"geometry":{"type":"Point","coordinates":[-1.561713,48.241106]}},{"type":"Feature","properties":{"ID_BAT":"3506709","CODE_INSEE":"35067","NOM_COM":"Chasné-sur-Illet","CODE_EPCI":"243500774","NOM_EPCI":"CC Liffré-Cormier Communauté","NOM_BATI":"Vestiaires Sportifs","ADRESSE":"RUE DE LA FORET","SURFACE":109,"RENOVATION":"Non","TYPE":"Sportif","CO2 en Tonnes":0.308928,"ANNEE":"2022"},"geometry":{"type":"Point","coordinates":[-1.5559397,48.2416964]}},{"type":"Feature","properties":{"ID_BAT":"3506710","CODE_INSEE":"35067","NOM_COM":"Chasné-sur-Illet","CODE_EPCI":"243500774","NOM_EPCI":"CC Liffré-Cormier Communauté","NOM_BATI":"Eglise","ADRESSE":"PLACE DE L'EGLISE","SURFACE":315,"RENOVATION":"Non","TYPE":"Cultuel","CO2 en Tonnes":0.8822857,"ANNEE":"2022"},"geometry":{"type":"Point","coordinates":[-1.5618605,48.2425647]}},{"type":"Feature","properties":{"ID_BAT":"3507902","CODE_INSEE":"35079","NOM_COM":"Chevaigné","CODE_EPCI":"243500139","NOM_EPCI":"Rennes Métropole","NOM_BATI":"Cantine/ Groupe Scolaire","ADRESSE":"3 Pl. de l'Église","SURFACE":1400,"RENOVATION":"Non","TYPE":"Scolaire – enfance","CO2 en Tonnes":21.7243783,"ANNEE":"2022"},"geometry":{"type":"Point","coordinates":[-1.6317173,48.2114851]}},{"type":"Feature","properties":{"ID_BAT":"3507903","CODE_INSEE":"35079","NOM_COM":"Chevaigné","CODE_EPCI":"243500139","NOM_EPCI":"Rennes Métropole","NOM_BATI":"Services Techniques-Gautrel","ADRESSE":"RUE DE GAUTREL 05","SURFACE":315,"RENOVATION":"Non","TYPE":"Technique","CO2 en Tonnes":1.03488,"ANNEE":"2022"},"geometry":{"type":"Point","coordinates":[-1.624443,48.2131952]}},{"type":"Feature","properties":{"ID_BAT":"3507905","CODE_INSEE":"35079","NOM_COM":"Chevaigné","CODE_EPCI":"243500139","NOM_EPCI":"Rennes Métropole","NOM_BATI":"Salle Des Sports/Polyvalente","ADRESSE":"20 ROUTE DE LA MOTTE","SURFACE":751,"RENOVATION":"Non","TYPE":"Sportif","CO2 en Tonnes":19.1860287,"ANNEE":"2022"},"geometry":{"type":"Point","coordinates":[-1.6325986,48.2148032]}},{"type":"Feature","properties":{"ID_BAT":"3507906","CODE_INSEE":"35079","NOM_COM":"Chevaigné","CODE_EPCI":"243500139","NOM_EPCI":"Rennes Métropole","NOM_BATI":"Mairie","ADRESSE":"7 Rue de la Mairie","SURFACE":543,"RENOVATION":"Non","TYPE":"Administratif","CO2 en Tonnes":0.786368,"ANNEE":"2022"},"geometry":{"type":"Point","coordinates":[-1.6304191,48.2120994]}},{"type":"Feature","properties":{"ID_BAT":"3507907","CODE_INSEE":"35079","NOM_COM":"Chevaigné","CODE_EPCI":"243500139","NOM_EPCI":"Rennes Métropole","NOM_BATI":"Maison De L'enfance","ADRESSE":"5 PLACE DE L EGLISE","SURFACE":400,"RENOVATION":"Non","TYPE":"Scolaire – enfance","CO2 en Tonnes":10.1521545,"ANNEE":"2022"},"geometry":{"type":"Point","coordinates":[-1.6302058,48.2116036]}},{"type":"Feature","properties":{"ID_BAT":"3507909","CODE_INSEE":"35079","NOM_COM":"Chevaigné","CODE_EPCI":"243500139","NOM_EPCI":"Rennes Métropole","NOM_BATI":"Pole Petite Enfance","ADRESSE":"4B RUE LES TEMPS MODERNES LES LUMIERES","SURFACE":430,"RENOVATION":"Non","TYPE":"Scolaire – enfance","CO2 en Tonnes":5.4545742,"ANNEE":"2022"},"geometry":{"type":"Point","coordinates":[-1.6281233,48.2092168]}},{"type":"Feature","properties":{"ID_BAT":"3507910","CODE_INSEE":"35079","NOM_COM":"Chevaigné","CODE_EPCI":"243500139","NOM_EPCI":"Rennes Métropole","NOM_BATI":"Atelier Artiste","ADRESSE":"impasse du vieux puit","SURFACE":230,"RENOVATION":"Oui","TYPE":"Socio-culturel","CO2 en Tonnes":-0.0112,"ANNEE":"2022"},"geometry":{"type":"Point","coordinates":[-1.6303492,48.2113755]}},{"type":"Feature","properties":{"ID_BAT":"3507911","CODE_INSEE":"35079","NOM_COM":"Chevaigné","CODE_EPCI":"243500139","NOM_EPCI":"Rennes Métropole","NOM_BATI":"Terrain Des Sports","ADRESSE":"22B ROUTE DE LA MOTTE","SURFACE":200,"RENOVATION":"Non","TYPE":"Sportif","CO2 en Tonnes":0.527872,"ANNEE":"2022"},"geometry":{"type":"Point","coordinates":[-1.6313671,48.2148486]}},{"type":"Feature","properties":{"ID_BAT":"3507913","CODE_INSEE":"35079","NOM_COM":"Chevaigné","CODE_EPCI":"243500139","NOM_EPCI":"Rennes Métropole","NOM_BATI":"Maison L'experience","ADRESSE":"7 PLACE DE L’EGLISE","SURFACE":350,"RENOVATION":"Non","TYPE":"Administratif","CO2 en Tonnes":3.1404277,"ANNEE":"2022"},"geometry":{"type":"Point","coordinates":[-1.6310035,48.2115027]}},{"type":"Feature","properties":{"ID_BAT":"3507915","CODE_INSEE":"35079","NOM_COM":"Chevaigné","CODE_EPCI":"243500139","NOM_EPCI":"Rennes Métropole","NOM_BATI":"Maison Auffray","ADRESSE":"13 rue de la mairie","SURFACE":75,"RENOVATION":"Non","TYPE":"Résidentiel","CO2 en Tonnes":0.953536,"ANNEE":"2022"},"geometry":{"type":"Point","coordinates":[-1.6301535,48.2124828]}},{"type":"Feature","properties":{"ID_BAT":"3507916","CODE_INSEE":"35079","NOM_COM":"Chevaigné","CODE_EPCI":"243500139","NOM_EPCI":"Rennes Métropole","NOM_BATI":"Accolade","ADRESSE":"4 Rue de la Mairie","SURFACE":790.2,"RENOVATION":"Non","TYPE":"Socio-culturel","CO2 en Tonnes":1.4370312,"ANNEE":"2022"},"geometry":{"type":"Point","coordinates":[-1.6298806,48.2120688]}},{"type":"Feature","properties":{"ID_BAT":"3507917","CODE_INSEE":"35079","NOM_COM":"Chevaigné","CODE_EPCI":"243500139","NOM_EPCI":"Rennes Métropole","NOM_BATI":"Salle Des Tilleuls","ADRESSE":"1 rue de la Priouté","SURFACE":220,"RENOVATION":"Non","TYPE":"Socio-culturel","CO2 en Tonnes":0.398272,"ANNEE":"2022"},"geometry":{"type":"Point","coordinates":[-1.6294473,48.2117433]}},{"type":"Feature","properties":{"ID_BAT":"3507918","CODE_INSEE":"35079","NOM_COM":"Chevaigné","CODE_EPCI":"243500139","NOM_EPCI":"Rennes Métropole","NOM_BATI":"Bâtiment Communale La Scierie","ADRESSE":"La scierie D528","SURFACE":52,"RENOVATION":"Non","TYPE":"Sportif","CO2 en Tonnes":0.109824,"ANNEE":"2022"},"geometry":{"type":"Point","coordinates":[-1.6365525,48.2103661]}},{"type":"Feature","properties":{"ID_BAT":"3507919","CODE_INSEE":"35079","NOM_COM":"Chevaigné","CODE_EPCI":"243500139","NOM_EPCI":"Rennes Métropole","NOM_BATI":"Atelier","ADRESSE":"2 place de l'église","SURFACE":110,"RENOVATION":"Non","TYPE":"Socio-culturel","CO2 en Tonnes":0.126656,"ANNEE":"2022"},"geometry":{"type":"Point","coordinates":[-1.6311208,48.2109375]}},{"type":"Feature","properties":{"ID_BAT":"3508001","CODE_INSEE":"35080","NOM_COM":"Cintré","CODE_EPCI":"243500139","NOM_EPCI":"Rennes Métropole","NOM_BATI":"Ecoles + Restaurant Scolaire + Salle De Sport + Salle Le Cormelet + Salle Communale","ADRESSE":"1 rue de rennes","SURFACE":4055,"RENOVATION":"Non","TYPE":"Scolaire – enfance","CO2 en Tonnes":28.9617821,"ANNEE":"2022"},"geometry":{"type":"Point","coordinates":[-1.870036,48.1052275]}},{"type":"Feature","properties":{"ID_BAT":"3508002","CODE_INSEE":"35080","NOM_COM":"Cintré","CODE_EPCI":"243500139","NOM_EPCI":"Rennes Métropole","NOM_BATI":"Mairie + Bibliotheque + Hangar Services Techniques","ADRESSE":"7 place du chêne vert","SURFACE":924,"RENOVATION":"Oui","TYPE":"Administratif","CO2 en Tonnes":10.7209248,"ANNEE":"2022"},"geometry":{"type":"Point","coordinates":[-1.8724768,48.105883]}},{"type":"Feature","properties":{"ID_BAT":"3508003","CODE_INSEE":"35080","NOM_COM":"Cintré","CODE_EPCI":"243500139","NOM_EPCI":"Rennes Métropole","NOM_BATI":"Vestiaires Foot","ADRESSE":"Allée des sports","SURFACE":160,"RENOVATION":"Non","TYPE":"Sportif","CO2 en Tonnes":0.475904,"ANNEE":"2022"},"geometry":{"type":"Point","coordinates":[-1.8746721,48.1009127]}},{"type":"Feature","properties":{"ID_BAT":"3508004","CODE_INSEE":"35080","NOM_COM":"Cintré","CODE_EPCI":"243500139","NOM_EPCI":"Rennes Métropole","NOM_BATI":"Espace Culturel La Grange","ADRESSE":"4 rue des iffs","SURFACE":150,"RENOVATION":"Oui","TYPE":"Socio-culturel","CO2 en Tonnes":1.038592,"ANNEE":"2022"},"geometry":{"type":"Point","coordinates":[-1.871574,48.1064157]}},{"type":"Feature","properties":{"ID_BAT":"3508005","CODE_INSEE":"35080","NOM_COM":"Cintré","CODE_EPCI":"243500139","NOM_EPCI":"Rennes Métropole","NOM_BATI":"Eglise","ADRESSE":"rue des iffs","SURFACE":665,"RENOVATION":"Non","TYPE":"Cultuel","CO2 en Tonnes":0.117952,"ANNEE":"2022"},"geometry":{"type":"Point","coordinates":[-1.8712159,48.106192]}},{"type":"Feature","properties":{"ID_BAT":"3508006","CODE_INSEE":"35080","NOM_COM":"Cintré","CODE_EPCI":"243500139","NOM_EPCI":"Rennes Métropole","NOM_BATI":"Local Associations (= Salle Du Centre)","ADRESSE":"3 place du centre","SURFACE":210,"RENOVATION":"Non","TYPE":"Socio-culturel","CO2 en Tonnes":0.00032,"ANNEE":"2022"},"geometry":{"type":"Point","coordinates":[-1.8705932,48.1061903]}},{"type":"Feature","properties":{"ID_BAT":"3508008","CODE_INSEE":"35080","NOM_COM":"Cintré","CODE_EPCI":"243500139","NOM_EPCI":"Rennes Métropole","NOM_BATI":"Local Abribus","ADRESSE":"rue bel air","SURFACE":20,"RENOVATION":"Non","TYPE":"Technique","CO2 en Tonnes":0.0976,"ANNEE":"2022"},"geometry":{"type":"Point","coordinates":[-1.8726768,48.1050181]}},{"type":"Feature","properties":{"ID_BAT":"3508801","CODE_INSEE":"35088","NOM_COM":"Corps-Nuds","CODE_EPCI":"243500139","NOM_EPCI":"Rennes Métropole","NOM_BATI":"Mairie","ADRESSE":"31 rue des 3 marie","SURFACE":533,"RENOVATION":"Non","TYPE":"Administratif","CO2 en Tonnes":2.95456,"ANNEE":"2022"},"geometry":{"type":"Point","coordinates":[-1.5879708,47.97907]}},{"type":"Feature","properties":{"ID_BAT":"3508802","CODE_INSEE":"35088","NOM_COM":"Corps-Nuds","CODE_EPCI":"243500139","NOM_EPCI":"Rennes Métropole","NOM_BATI":"Ecole Jy Cousteau","ADRESSE":"29 Bd de la gare","SURFACE":2185,"RENOVATION":"Non","TYPE":"Scolaire – enfance","CO2 en Tonnes":55.3494037,"ANNEE":"2022"},"geometry":{"type":"Point","coordinates":[-1.5842167,47.9805016]}},{"type":"Feature","properties":{"ID_BAT":"3508803","CODE_INSEE":"35088","NOM_COM":"Corps-Nuds","CODE_EPCI":"243500139","NOM_EPCI":"Rennes Métropole","NOM_BATI":"Mjc","ADRESSE":"8 Rue des loisirs","SURFACE":510,"RENOVATION":"Non","TYPE":"Socio-culturel","CO2 en Tonnes":20.2834321,"ANNEE":"2022"},"geometry":{"type":"Point","coordinates":[-1.5817892,47.9828723]}},{"type":"Feature","properties":{"ID_BAT":"3508804","CODE_INSEE":"35088","NOM_COM":"Corps-Nuds","CODE_EPCI":"243500139","NOM_EPCI":"Rennes Métropole","NOM_BATI":"Salle Des Sports","ADRESSE":"5 rue des loisirs","SURFACE":1325,"RENOVATION":"Non","TYPE":"Sportif","CO2 en Tonnes":24.4905345,"ANNEE":"2022"},"geometry":{"type":"Point","coordinates":[-1.5830278,47.9823159]}},{"type":"Feature","properties":{"ID_BAT":"3508805","CODE_INSEE":"35088","NOM_COM":"Corps-Nuds","CODE_EPCI":"243500139","NOM_EPCI":"Rennes Métropole","NOM_BATI":"Restaurant Scolaire","ADRESSE":"Rue du point du jour","SURFACE":441,"RENOVATION":"Non","TYPE":"Restauration","CO2 en Tonnes":7.2663232,"ANNEE":"2022"},"geometry":{"type":"Point","coordinates":[-1.5855838,47.978729]}},{"type":"Feature","properties":{"ID_BAT":"3508806","CODE_INSEE":"35088","NOM_COM":"Corps-Nuds","CODE_EPCI":"243500139","NOM_EPCI":"Rennes Métropole","NOM_BATI":"Centre Technique","ADRESSE":"Rue des loisirs","SURFACE":617,"RENOVATION":"Non","TYPE":"Technique","CO2 en Tonnes":1.130752,"ANNEE":"2022"},"geometry":{"type":"Point","coordinates":[-1.5788401,47.9854258]}},{"type":"Feature","properties":{"ID_BAT":"3508807","CODE_INSEE":"35088","NOM_COM":"Corps-Nuds","CODE_EPCI":"243500139","NOM_EPCI":"Rennes Métropole","NOM_BATI":"Salle De La Huberdiere","ADRESSE":"41 Bd de la gare","SURFACE":650,"RENOVATION":"Non","TYPE":"Socio-culturel","CO2 en Tonnes":12.981189,"ANNEE":"2022"},"geometry":{"type":"Point","coordinates":[-1.5810944,47.9826198]}},{"type":"Feature","properties":{"ID_BAT":"3508809","CODE_INSEE":"35088","NOM_COM":"Corps-Nuds","CODE_EPCI":"243500139","NOM_EPCI":"Rennes Métropole","NOM_BATI":"Eglise","ADRESSE":"Place de l'église","SURFACE":700,"RENOVATION":"Non","TYPE":"Cultuel","CO2 en Tonnes":0.127744,"ANNEE":"2022"},"geometry":{"type":"Point","coordinates":[-1.5875903,47.9779183]}},{"type":"Feature","properties":{"ID_BAT":"3508810","CODE_INSEE":"35088","NOM_COM":"Corps-Nuds","CODE_EPCI":"243500139","NOM_EPCI":"Rennes Métropole","NOM_BATI":"Maison De L'enfance","ADRESSE":"Rue de la Gare","SURFACE":1224,"RENOVATION":"Non","TYPE":"Scolaire - enfance","CO2 en Tonnes":18.7907909,"ANNEE":"2022"},"geometry":{"type":"Point","coordinates":[-1.5854342,47.9806763]}},{"type":"Feature","properties":{"ID_BAT":"3510701","CODE_INSEE":"35107","NOM_COM":"Ercé-près-Liffré","CODE_EPCI":"243500774","NOM_EPCI":"CC Liffré-Cormier Communauté","NOM_BATI":"Mairie","ADRESSE":"place de la mairie","SURFACE":371,"RENOVATION":"Non","TYPE":"Administratif","CO2 en Tonnes":12.1346317,"ANNEE":"2022"},"geometry":{"type":"Point","coordinates":[-1.5174218,48.2560178]}},{"type":"Feature","properties":{"ID_BAT":"3510702","CODE_INSEE":"35107","NOM_COM":"Ercé-près-Liffré","CODE_EPCI":"243500774","NOM_EPCI":"CC Liffré-Cormier Communauté","NOM_BATI":"Maternelle","ADRESSE":"2 rue de la Croix de l'Ecu","SURFACE":683,"RENOVATION":"Non","TYPE":"Scolaire – enfance","CO2 en Tonnes":2.4453792,"ANNEE":"2022"},"geometry":{"type":"Point","coordinates":[-1.5122253,48.2535108]}},{"type":"Feature","properties":{"ID_BAT":"3510703","CODE_INSEE":"35107","NOM_COM":"Ercé-près-Liffré","CODE_EPCI":"243500774","NOM_EPCI":"CC Liffré-Cormier Communauté","NOM_BATI":"Cantine","ADRESSE":"rue de Fougere","SURFACE":415,"RENOVATION":"Non","TYPE":"Restauration","CO2 en Tonnes":7.6072753,"ANNEE":"2022"},"geometry":{"type":"Point","coordinates":[-1.5120543,48.2548993]}},{"type":"Feature","properties":{"ID_BAT":"3510704","CODE_INSEE":"35107","NOM_COM":"Ercé-près-Liffré","CODE_EPCI":"243500774","NOM_EPCI":"CC Liffré-Cormier Communauté","NOM_BATI":"Espace Socio Culturel","ADRESSE":"rue des tilleuls","SURFACE":708,"RENOVATION":"Oui","TYPE":"Socio-culturel","CO2 en Tonnes":11.7523199,"ANNEE":"2022"},"geometry":{"type":"Point","coordinates":[-1.5171357,48.2558497]}},{"type":"Feature","properties":{"ID_BAT":"3510706","CODE_INSEE":"35107","NOM_COM":"Ercé-près-Liffré","CODE_EPCI":"243500774","NOM_EPCI":"CC Liffré-Cormier Communauté","NOM_BATI":"Espace Jeune","ADRESSE":"2 RUE CROIX DE L’ECU","SURFACE":235,"RENOVATION":"Oui","TYPE":"Scolaire – enfance","CO2 en Tonnes":0.061312,"ANNEE":"2022"},"geometry":{"type":"Point","coordinates":[-1.5170174,48.255771]}},{"type":"Feature","properties":{"ID_BAT":"3510707","CODE_INSEE":"35107","NOM_COM":"Ercé-près-Liffré","CODE_EPCI":"243500774","NOM_EPCI":"CC Liffré-Cormier Communauté","NOM_BATI":"Salle Des Fêtes","ADRESSE":"avenue de l'illet","SURFACE":390,"RENOVATION":"Non","TYPE":"Autre","CO2 en Tonnes":10.606099,"ANNEE":"2022"},"geometry":{"type":"Point","coordinates":[-1.5155369,48.2580553]}},{"type":"Feature","properties":{"ID_BAT":"3510708","CODE_INSEE":"35107","NOM_COM":"Ercé-près-Liffré","CODE_EPCI":"243500774","NOM_EPCI":"CC Liffré-Cormier Communauté","NOM_BATI":"Maison Intercommunale","ADRESSE":"6 RUE CROIX DE L'ECU","SURFACE":401,"RENOVATION":"Non","TYPE":"Scolaire - enfance","CO2 en Tonnes":4.0951931,"ANNEE":"2022"},"geometry":{"type":"Point","coordinates":[-1.5117259,48.2518198]}},{"type":"Feature","properties":{"ID_BAT":"3510709","CODE_INSEE":"35107","NOM_COM":"Ercé-près-Liffré","CODE_EPCI":"243500774","NOM_EPCI":"CC Liffré-Cormier Communauté","NOM_BATI":"Elementaire+Alsh","ADRESSE":"2 rue de la Croix de l'Ecu","SURFACE":750,"RENOVATION":"Non","TYPE":"Scolaire – enfance","CO2 en Tonnes":26.2396642,"ANNEE":"2022"},"geometry":{"type":"Point","coordinates":[-1.5126786,48.2542269]}},{"type":"Feature","properties":{"ID_BAT":"3510710","CODE_INSEE":"35107","NOM_COM":"Ercé-près-Liffré","CODE_EPCI":"243500774","NOM_EPCI":"CC Liffré-Cormier Communauté","NOM_BATI":"Salle Des Sports","ADRESSE":"RUE CROIX DE L'ECU","SURFACE":1290,"RENOVATION":"Non","TYPE":"Sportif","CO2 en Tonnes":9.8026692,"ANNEE":"2022"},"geometry":{"type":"Point","coordinates":[-1.5123233,48.2521905]}},{"type":"Feature","properties":{"ID_BAT":"3511001","CODE_INSEE":"35110","NOM_COM":"Feins","CODE_EPCI":"243500667","NOM_EPCI":"CC Val d'Ille-Aubigné","NOM_BATI":"Ecole + Atelier Technique","ADRESSE":"21 RUE DES ECOLES","SURFACE":682,"RENOVATION":"Oui","TYPE":"Scolaire – enfance","CO2 en Tonnes":4.046144,"ANNEE":"2021"},"geometry":{"type":"Point","coordinates":[-1.6381141,48.3289636]}},{"type":"Feature","properties":{"ID_BAT":"3511002","CODE_INSEE":"35110","NOM_COM":"Feins","CODE_EPCI":"243500667","NOM_EPCI":"CC Val d'Ille-Aubigné","NOM_BATI":"Restaurant Scolaire","ADRESSE":"12 RUE ROME DE LAVENE","SURFACE":288,"RENOVATION":"Non","TYPE":"Restauration","CO2 en Tonnes":4.2567423,"ANNEE":"2021"},"geometry":{"type":"Point","coordinates":[-1.638345,48.3294023]}},{"type":"Feature","properties":{"ID_BAT":"3511003","CODE_INSEE":"35110","NOM_COM":"Feins","CODE_EPCI":"243500667","NOM_EPCI":"CC Val d'Ille-Aubigné","NOM_BATI":"Garderie","ADRESSE":"21 RUE DES ECOLES","SURFACE":156,"RENOVATION":"Non","TYPE":"Scolaire – enfance","CO2 en Tonnes":0.618496,"ANNEE":"2021"},"geometry":{"type":"Point","coordinates":[-1.6387447,48.3289919]}},{"type":"Feature","properties":{"ID_BAT":"3511004","CODE_INSEE":"35110","NOM_COM":"Feins","CODE_EPCI":"243500667","NOM_EPCI":"CC Val d'Ille-Aubigné","NOM_BATI":"Mairie","ADRESSE":"2 RUE DES ECOLES","SURFACE":420,"RENOVATION":"Non","TYPE":"Administratif","CO2 en Tonnes":9.4898297,"ANNEE":"2021"},"geometry":{"type":"Point","coordinates":[-1.6403276,48.3283324]}},{"type":"Feature","properties":{"ID_BAT":"3511005","CODE_INSEE":"35110","NOM_COM":"Feins","CODE_EPCI":"243500667","NOM_EPCI":"CC Val d'Ille-Aubigné","NOM_BATI":"Salle Des Fetes","ADRESSE":"2 RUE DE DINGE","SURFACE":290,"RENOVATION":"Non","TYPE":"Socio-culturel","CO2 en Tonnes":0.406144,"ANNEE":"2021"},"geometry":{"type":"Point","coordinates":[-1.6419513,48.3293666]}},{"type":"Feature","properties":{"ID_BAT":"3511801","CODE_INSEE":"35118","NOM_COM":"Gahard","CODE_EPCI":"243500667","NOM_EPCI":"CC Val d'Ille-Aubigné","NOM_BATI":"Salle Polyvalente Emeraude & Salle De Sport","ADRESSE":"1B RUE ANNE DE BRETAGNE","SURFACE":2363,"RENOVATION":"Non","TYPE":"Socio-culturel","CO2 en Tonnes":7.2374368,"ANNEE":"2022"},"geometry":{"type":"Point","coordinates":[-1.5206573,48.2993324]}},{"type":"Feature","properties":{"ID_BAT":"3511802","CODE_INSEE":"35118","NOM_COM":"Gahard","CODE_EPCI":"243500667","NOM_EPCI":"CC Val d'Ille-Aubigné","NOM_BATI":"Groupe Scolaire","ADRESSE":"21 RUE JEAN MORIN","SURFACE":1023,"RENOVATION":"Non","TYPE":"Scolaire – enfance","CO2 en Tonnes":20.0039416,"ANNEE":"2022"},"geometry":{"type":"Point","coordinates":[-1.521642,48.2995965]}},{"type":"Feature","properties":{"ID_BAT":"3511803","CODE_INSEE":"35118","NOM_COM":"Gahard","CODE_EPCI":"243500667","NOM_EPCI":"CC Val d'Ille-Aubigné","NOM_BATI":"Mairie","ADRESSE":"5 PLACE DE LA MAIRIE","SURFACE":500,"RENOVATION":"Non","TYPE":"Administratif","CO2 en Tonnes":6.9447845,"ANNEE":"2022"},"geometry":{"type":"Point","coordinates":[-1.5187007,48.2974612]}},{"type":"Feature","properties":{"ID_BAT":"3511804","CODE_INSEE":"35118","NOM_COM":"Gahard","CODE_EPCI":"243500667","NOM_EPCI":"CC Val d'Ille-Aubigné","NOM_BATI":"Salles Associatives","ADRESSE":"36 RUE JEAN MORIN","SURFACE":266,"RENOVATION":"Non","TYPE":"Socio-culturel","CO2 en Tonnes":6.8771429,"ANNEE":"2022"},"geometry":{"type":"Point","coordinates":[-1.5221892,48.2992878]}},{"type":"Feature","properties":{"ID_BAT":"3511805","CODE_INSEE":"35118","NOM_COM":"Gahard","CODE_EPCI":"243500667","NOM_EPCI":"CC Val d'Ille-Aubigné","NOM_BATI":"Atelier Et Bibliotheque","ADRESSE":"5 RUE DE LA GUERCHE","SURFACE":642,"RENOVATION":"Non","TYPE":"Socio-culturel","CO2 en Tonnes":0.745792,"ANNEE":"2022"},"geometry":{"type":"Point","coordinates":[-1.5204807,48.2972739]}},{"type":"Feature","properties":{"ID_BAT":"3512001","CODE_INSEE":"35120","NOM_COM":"Gévezé","CODE_EPCI":"243500139","NOM_EPCI":"Rennes Métropole","NOM_BATI":"Mairie","ADRESSE":"18 Place de l'église","SURFACE":510,"RENOVATION":"Non","TYPE":"Administratif","CO2 en Tonnes":11.8848863,"ANNEE":"2022"},"geometry":{"type":"Point","coordinates":[-1.7887453,48.2208778]}},{"type":"Feature","properties":{"ID_BAT":"3512002","CODE_INSEE":"35120","NOM_COM":"Gévezé","CODE_EPCI":"243500139","NOM_EPCI":"Rennes Métropole","NOM_BATI":"Groupe Scolaire Leonard De Vinci - 3 Mats","ADRESSE":"Rue de la gare","SURFACE":3301,"RENOVATION":"Non","TYPE":"Scolaire – enfance","CO2 en Tonnes":8.5055243,"ANNEE":"2022"},"geometry":{"type":"Point","coordinates":[-1.7913094,48.2194952]}},{"type":"Feature","properties":{"ID_BAT":"3512003","CODE_INSEE":"35120","NOM_COM":"Gévezé","CODE_EPCI":"243500139","NOM_EPCI":"Rennes Métropole","NOM_BATI":"Maison De L'enfance (Restaurant Municipal)","ADRESSE":"Rue du vieux moulin","SURFACE":1286,"RENOVATION":"Non","TYPE":"Restauration","CO2 en Tonnes":37.6226299,"ANNEE":"2022"},"geometry":{"type":"Point","coordinates":[-1.7880981,48.2202651]}},{"type":"Feature","properties":{"ID_BAT":"3512004","CODE_INSEE":"35120","NOM_COM":"Gévezé","CODE_EPCI":"243500139","NOM_EPCI":"Rennes Métropole","NOM_BATI":"Salles Polyvalente/Omnisports L'escale/Dann/Gurney - Foyers","ADRESSE":"Route de Romillé","SURFACE":2862,"RENOVATION":"Non","TYPE":"Sportif","CO2 en Tonnes":60.9355723,"ANNEE":"2022"},"geometry":{"type":"Point","coordinates":[-1.7935979,48.2207161]}},{"type":"Feature","properties":{"ID_BAT":"3512005","CODE_INSEE":"35120","NOM_COM":"Gévezé","CODE_EPCI":"243500139","NOM_EPCI":"Rennes Métropole","NOM_BATI":"Maison Des Familles - Salle Des Palets","ADRESSE":"17 Rue du calvaire","SURFACE":441,"RENOVATION":"Non","TYPE":"Socio-culturel","CO2 en Tonnes":9.1416865,"ANNEE":"2022"},"geometry":{"type":"Point","coordinates":[-1.789373,48.2193252]}},{"type":"Feature","properties":{"ID_BAT":"3512006","CODE_INSEE":"35120","NOM_COM":"Gévezé","CODE_EPCI":"243500139","NOM_EPCI":"Rennes Métropole","NOM_BATI":"Mediatheque - Multiaccueil Petit Moulin","ADRESSE":"Av de Beauvais","SURFACE":687,"RENOVATION":"Non","TYPE":"Socio-culturel","CO2 en Tonnes":17.3360423,"ANNEE":"2022"},"geometry":{"type":"Point","coordinates":[-1.7917099,48.2186666]}},{"type":"Feature","properties":{"ID_BAT":"3512007","CODE_INSEE":"35120","NOM_COM":"Gévezé","CODE_EPCI":"243500139","NOM_EPCI":"Rennes Métropole","NOM_BATI":"Ateliers Municipaux","ADRESSE":"Launay geoffroy","SURFACE":672,"RENOVATION":"Non","TYPE":"Technique","CO2 en Tonnes":1.21376,"ANNEE":"2022"},"geometry":{"type":"Point","coordinates":[-1.7856568,48.2153687]}},{"type":"Feature","properties":{"ID_BAT":"3512008","CODE_INSEE":"35120","NOM_COM":"Gévezé","CODE_EPCI":"243500139","NOM_EPCI":"Rennes Métropole","NOM_BATI":"Salle La Grange","ADRESSE":"8 Rue de la gare","SURFACE":218,"RENOVATION":"Non","TYPE":"Socio-culturel","CO2 en Tonnes":0.95648,"ANNEE":"2022"},"geometry":{"type":"Point","coordinates":[-1.7910877,48.2206606]}},{"type":"Feature","properties":{"ID_BAT":"3512009","CODE_INSEE":"35120","NOM_COM":"Gévezé","CODE_EPCI":"243500139","NOM_EPCI":"Rennes Métropole","NOM_BATI":"Salle Des Sports L'envol","ADRESSE":"4 Av. de la Croix du Vivier","SURFACE":2340,"RENOVATION":"Non","TYPE":"Sportif","CO2 en Tonnes":17.0652886,"ANNEE":"2022"},"geometry":{"type":"Point","coordinates":[-1.7931746,48.2188298]}},{"type":"Feature","properties":{"ID_BAT":"3512101","CODE_INSEE":"35121","NOM_COM":"Gosné","CODE_EPCI":"243500774","NOM_EPCI":"CC Liffré-Cormier Communauté","NOM_BATI":"Groupe Scolaire Nominoe","ADRESSE":"2 RUE BUISSONIERE","SURFACE":1419,"RENOVATION":"Non","TYPE":"Scolaire – enfance","CO2 en Tonnes":38.8318191,"ANNEE":"2022"},"geometry":{"type":"Point","coordinates":[-1.463563,48.2474299]}},{"type":"Feature","properties":{"ID_BAT":"3512102","CODE_INSEE":"35121","NOM_COM":"Gosné","CODE_EPCI":"243500774","NOM_EPCI":"CC Liffré-Cormier Communauté","NOM_BATI":"Salle Omnisports","ADRESSE":"1 RUE DU STADE","SURFACE":1476,"RENOVATION":"Non","TYPE":"Sportif","CO2 en Tonnes":26.2569734,"ANNEE":"2022"},"geometry":{"type":"Point","coordinates":[-1.4576675,48.2481385]}},{"type":"Feature","properties":{"ID_BAT":"3512103","CODE_INSEE":"35121","NOM_COM":"Gosné","CODE_EPCI":"243500774","NOM_EPCI":"CC Liffré-Cormier Communauté","NOM_BATI":"Vestiaires Foot","ADRESSE":"RUE DU STADE","SURFACE":300,"RENOVATION":"Non","TYPE":"Sportif","CO2 en Tonnes":2.6186052,"ANNEE":"2022"},"geometry":{"type":"Point","coordinates":[-1.4597945,48.2483094]}},{"type":"Feature","properties":{"ID_BAT":"3512104","CODE_INSEE":"35121","NOM_COM":"Gosné","CODE_EPCI":"243500774","NOM_EPCI":"CC Liffré-Cormier Communauté","NOM_BATI":"Mairie Et Bibliotheque","ADRESSE":"PLACE DU CALVAIRE","SURFACE":817,"RENOVATION":"Oui","TYPE":"Administratif","CO2 en Tonnes":13.2191841,"ANNEE":"2022"},"geometry":{"type":"Point","coordinates":[-1.4661998,48.2468852]}},{"type":"Feature","properties":{"ID_BAT":"3512105","CODE_INSEE":"35121","NOM_COM":"Gosné","CODE_EPCI":"243500774","NOM_EPCI":"CC Liffré-Cormier Communauté","NOM_BATI":"Maison Des Services","ADRESSE":"6 RUE BUISSONIERE","SURFACE":340,"RENOVATION":"Non","TYPE":"Médico-social","CO2 en Tonnes":9.423078,"ANNEE":"2022"},"geometry":{"type":"Point","coordinates":[-1.464187,48.2473807]}},{"type":"Feature","properties":{"ID_BAT":"3512106","CODE_INSEE":"35121","NOM_COM":"Gosné","CODE_EPCI":"243500774","NOM_EPCI":"CC Liffré-Cormier Communauté","NOM_BATI":"Local Technique","ADRESSE":"RUE DU STADE","SURFACE":260,"RENOVATION":"Non","TYPE":"Technique","CO2 en Tonnes":1.6238752,"ANNEE":"2022"},"geometry":{"type":"Point","coordinates":[-1.4583652,48.2481855]}},{"type":"Feature","properties":{"ID_BAT":"3512107","CODE_INSEE":"35121","NOM_COM":"Gosné","CODE_EPCI":"243500774","NOM_EPCI":"CC Liffré-Cormier Communauté","NOM_BATI":"Ancienne Ecole Publique","ADRESSE":"5 RUE DE L'ILLET","SURFACE":406,"RENOVATION":"Non","TYPE":"Socio-culturel","CO2 en Tonnes":0.959168,"ANNEE":"2022"},"geometry":{"type":"Point","coordinates":[-1.4665743,48.2465391]}},{"type":"Feature","properties":{"ID_BAT":"3512108","CODE_INSEE":"35121","NOM_COM":"Gosné","CODE_EPCI":"243500774","NOM_EPCI":"CC Liffré-Cormier Communauté","NOM_BATI":"Espace Jeunes","ADRESSE":"ALLEE DES CHÊNES","SURFACE":60,"RENOVATION":"Non","TYPE":"Socio-culturel","CO2 en Tonnes":0.986368,"ANNEE":"2022"},"geometry":{"type":"Point","coordinates":[-1.4661487,48.2463998]}},{"type":"Feature","properties":{"ID_BAT":"3512109","CODE_INSEE":"35121","NOM_COM":"Gosné","CODE_EPCI":"243500774","NOM_EPCI":"CC Liffré-Cormier Communauté","NOM_BATI":"Salle Des Fêtes","ADRESSE":"13 RUE DE LA FUTAIE","SURFACE":484,"RENOVATION":"Non","TYPE":"Socio-culturel","CO2 en Tonnes":0.999632,"ANNEE":"2022"},"geometry":{"type":"Point","coordinates":[-1.4673736,48.247776]}},{"type":"Feature","properties":{"ID_BAT":"3512110","CODE_INSEE":"35121","NOM_COM":"Gosné","CODE_EPCI":"243500774","NOM_EPCI":"CC Liffré-Cormier Communauté","NOM_BATI":"Salle Multifonctionnelle","ADRESSE":"1 RUE DU STADE","SURFACE":190,"RENOVATION":"Non","TYPE":"Socio-culturel","CO2 en Tonnes":0.198016,"ANNEE":"2022"},"geometry":{"type":"Point","coordinates":[-1.4577403,48.248182]}},{"type":"Feature","properties":{"ID_BAT":"3512801","CODE_INSEE":"35128","NOM_COM":"Guipel","CODE_EPCI":"243500667","NOM_EPCI":"CC Val d'Ille-Aubigné","NOM_BATI":"Ecole","ADRESSE":"16 Rue de la Liberté","SURFACE":1495,"RENOVATION":"Non","TYPE":"Scolaire – enfance","CO2 en Tonnes":5.0726654,"ANNEE":"2022"},"geometry":{"type":"Point","coordinates":[-1.7228811,48.2985269]}},{"type":"Feature","properties":{"ID_BAT":"3512802","CODE_INSEE":"35128","NOM_COM":"Guipel","CODE_EPCI":"243500667","NOM_EPCI":"CC Val d'Ille-Aubigné","NOM_BATI":"Salle André Michel","ADRESSE":"rue du stade","SURFACE":360,"RENOVATION":"Oui","TYPE":"Socio-culturel","CO2 en Tonnes":0.983296,"ANNEE":"2022"},"geometry":{"type":"Point","coordinates":[-1.7166717,48.2997752]}},{"type":"Feature","properties":{"ID_BAT":"3512803","CODE_INSEE":"35128","NOM_COM":"Guipel","CODE_EPCI":"243500667","NOM_EPCI":"CC Val d'Ille-Aubigné","NOM_BATI":"Salle De Sport/Loisirs","ADRESSE":"rue du stade","SURFACE":1330,"RENOVATION":"Non","TYPE":"Socio-culturel","CO2 en Tonnes":1.538112,"ANNEE":"2022"},"geometry":{"type":"Point","coordinates":[-1.7164612,48.3014618]}},{"type":"Feature","properties":{"ID_BAT":"3512804","CODE_INSEE":"35128","NOM_COM":"Guipel","CODE_EPCI":"243500667","NOM_EPCI":"CC Val d'Ille-Aubigné","NOM_BATI":"Les Pontènes","ADRESSE":"1 rue des Pontènes, 35440 Guipel","SURFACE":828,"RENOVATION":"Oui","TYPE":"Scolaire – enfance","CO2 en Tonnes":3.1641502,"ANNEE":"2022"},"geometry":{"type":"Point","coordinates":[-1.7233094,48.2976181]}},{"type":"Feature","properties":{"ID_BAT":"3512805","CODE_INSEE":"35128","NOM_COM":"Guipel","CODE_EPCI":"243500667","NOM_EPCI":"CC Val d'Ille-Aubigné","NOM_BATI":"Mairie","ADRESSE":"40 Rue de la Liberté, 35440 Guipel","SURFACE":163,"RENOVATION":"Non","TYPE":"Administratif","CO2 en Tonnes":5.6162895,"ANNEE":"2022"},"geometry":{"type":"Point","coordinates":[-1.7245811,48.2985765]}},{"type":"Feature","properties":{"ID_BAT":"3513101","CODE_INSEE":"35131","NOM_COM":"L'Hermitage","CODE_EPCI":"243500139","NOM_EPCI":"Rennes Métropole","NOM_BATI":"Groupe Scolaire + Alsh","ADRESSE":"20 Rue Théodore Botrel","SURFACE":3407,"RENOVATION":"Oui","TYPE":"Scolaire – enfance","CO2 en Tonnes":64.8378221,"ANNEE":"2022"},"geometry":{"type":"Point","coordinates":[-1.8142652,48.1270208]}},{"type":"Feature","properties":{"ID_BAT":"3513102","CODE_INSEE":"35131","NOM_COM":"L'Hermitage","CODE_EPCI":"243500139","NOM_EPCI":"Rennes Métropole","NOM_BATI":"Salle Christian Le Maout","ADRESSE":"67 Rue de Montfort","SURFACE":1171,"RENOVATION":"Non","TYPE":"Socio-culturel","CO2 en Tonnes":6.1430622,"ANNEE":"2022"},"geometry":{"type":"Point","coordinates":[-1.8230701,48.1279047]}},{"type":"Feature","properties":{"ID_BAT":"3513103","CODE_INSEE":"35131","NOM_COM":"L'Hermitage","CODE_EPCI":"243500139","NOM_EPCI":"Rennes Métropole","NOM_BATI":"Maison De La Petite Enfance","ADRESSE":"5 Place de la Mairie","SURFACE":336,"RENOVATION":"Non","TYPE":"Scolaire – enfance","CO2 en Tonnes":5.8043117,"ANNEE":"2022"},"geometry":{"type":"Point","coordinates":[-1.8177262,48.1278805]}},{"type":"Feature","properties":{"ID_BAT":"3513104","CODE_INSEE":"35131","NOM_COM":"L'Hermitage","CODE_EPCI":"243500139","NOM_EPCI":"Rennes Métropole","NOM_BATI":"Espace Polyvalent","ADRESSE":"5 Rue du Lavoir","SURFACE":1177,"RENOVATION":"Non","TYPE":"Socio-culturel","CO2 en Tonnes":22.4581511,"ANNEE":"2022"},"geometry":{"type":"Point","coordinates":[-1.8187829,48.1259138]}},{"type":"Feature","properties":{"ID_BAT":"3513105","CODE_INSEE":"35131","NOM_COM":"L'Hermitage","CODE_EPCI":"243500139","NOM_EPCI":"Rennes Métropole","NOM_BATI":"Salle Des Sports","ADRESSE":"2 All. du Margat","SURFACE":3550,"RENOVATION":"Non","TYPE":"Sportif","CO2 en Tonnes":17.8386838,"ANNEE":"2022"},"geometry":{"type":"Point","coordinates":[-1.8230228,48.1272588]}},{"type":"Feature","properties":{"ID_BAT":"3513106","CODE_INSEE":"35131","NOM_COM":"L'Hermitage","CODE_EPCI":"243500139","NOM_EPCI":"Rennes Métropole","NOM_BATI":"Mairie","ADRESSE":"1 Pl. de la Mairie","SURFACE":754,"RENOVATION":"Oui","TYPE":"Administratif","CO2 en Tonnes":11.8414918,"ANNEE":"2022"},"geometry":{"type":"Point","coordinates":[-1.8179965,48.1277486]}},{"type":"Feature","properties":{"ID_BAT":"3513107","CODE_INSEE":"35131","NOM_COM":"L'Hermitage","CODE_EPCI":"243500139","NOM_EPCI":"Rennes Métropole","NOM_BATI":"La Commanderie","ADRESSE":"1 Rue du Lavoir","SURFACE":1196,"RENOVATION":"Non","TYPE":"Socio-culturel","CO2 en Tonnes":21.9907048,"ANNEE":"2022"},"geometry":{"type":"Point","coordinates":[-1.8182114,48.1256317]}},{"type":"Feature","properties":{"ID_BAT":"3513108","CODE_INSEE":"35131","NOM_COM":"L'Hermitage","CODE_EPCI":"243500139","NOM_EPCI":"Rennes Métropole","NOM_BATI":"Bibliotheque & Xavier Grall","ADRESSE":"4 Pl. de la Mairie","SURFACE":630,"RENOVATION":"Non","TYPE":"Socio-culturel","CO2 en Tonnes":2.668416,"ANNEE":"2022"},"geometry":{"type":"Point","coordinates":[-1.8170494,48.1274326]}},{"type":"Feature","properties":{"ID_BAT":"3513109","CODE_INSEE":"35131","NOM_COM":"L'Hermitage","CODE_EPCI":"243500139","NOM_EPCI":"Rennes Métropole","NOM_BATI":"Ateliers","ADRESSE":"8 rue de mordelles","SURFACE":850,"RENOVATION":"Non","TYPE":"Technique","CO2 en Tonnes":0.868928,"ANNEE":"2022"},"geometry":{"type":"Point","coordinates":[-1.8215896,48.1214416]}},{"type":"Feature","properties":{"ID_BAT":"3513110","CODE_INSEE":"35131","NOM_COM":"L'Hermitage","CODE_EPCI":"243500139","NOM_EPCI":"Rennes Métropole","NOM_BATI":"Maison Des Jeunes","ADRESSE":"12 Rue de la Poste","SURFACE":206,"RENOVATION":"Non","TYPE":"Socio-culturel","CO2 en Tonnes":1.5568,"ANNEE":"2022"},"geometry":{"type":"Point","coordinates":[-1.8174727,48.1244462]}},{"type":"Feature","properties":{"ID_BAT":"3503101","CODE_INSEE":"35031","NOM_COM":"La Bouëxière","CODE_EPCI":"243500774","NOM_EPCI":"CC Liffré-Cormier Communauté","NOM_BATI":"Mairie","ADRESSE":"5 RUE THEOPHILE REMOND","SURFACE":1360,"RENOVATION":"Oui","TYPE":"Administratif","CO2 en Tonnes":24.7311281,"ANNEE":"2022"},"geometry":{"type":"Point","coordinates":[-1.4374478,48.1840873]}},{"type":"Feature","properties":{"ID_BAT":"3503102","CODE_INSEE":"35031","NOM_COM":"La Bouëxière","CODE_EPCI":"243500774","NOM_EPCI":"CC Liffré-Cormier Communauté","NOM_BATI":"Restaurant Municipal","ADRESSE":"1 RUE DES GENÊTS","SURFACE":380,"RENOVATION":"Non","TYPE":"Restauration","CO2 en Tonnes":35.6219058,"ANNEE":"2022"},"geometry":{"type":"Point","coordinates":[-1.437652,48.1822565]}},{"type":"Feature","properties":{"ID_BAT":"3503103","CODE_INSEE":"35031","NOM_COM":"La Bouëxière","CODE_EPCI":"243500774","NOM_EPCI":"CC Liffré-Cormier Communauté","NOM_BATI":"Groupe Scolaire","ADRESSE":"10 RUE DES COLES","SURFACE":2300,"RENOVATION":"Non","TYPE":"Scolaire – enfance","CO2 en Tonnes":86.3784949,"ANNEE":"2022"},"geometry":{"type":"Point","coordinates":[-1.4362698,48.1819522]}},{"type":"Feature","properties":{"ID_BAT":"3503104","CODE_INSEE":"35031","NOM_COM":"La Bouëxière","CODE_EPCI":"243500774","NOM_EPCI":"CC Liffré-Cormier Communauté","NOM_BATI":"Complexe Associatif Et Culturel","ADRESSE":"20 RUE JEAN MARIE PAVY","SURFACE":2120,"RENOVATION":"Oui","TYPE":"Socio-culturel","CO2 en Tonnes":45.7031084,"ANNEE":"2022"},"geometry":{"type":"Point","coordinates":[-1.4397567,48.1849108]}},{"type":"Feature","properties":{"ID_BAT":"3503105","CODE_INSEE":"35031","NOM_COM":"La Bouëxière","CODE_EPCI":"243500774","NOM_EPCI":"CC Liffré-Cormier Communauté","NOM_BATI":"Salle Polyvalente Gym","ADRESSE":"19 RUE DE LA DOBIAIS","SURFACE":2920,"RENOVATION":"Non","TYPE":"Socio-culturel","CO2 en Tonnes":58.3774291,"ANNEE":"2022"},"geometry":{"type":"Point","coordinates":[-1.4321632,48.1787793]}},{"type":"Feature","properties":{"ID_BAT":"3503106","CODE_INSEE":"35031","NOM_COM":"La Bouëxière","CODE_EPCI":"243500774","NOM_EPCI":"CC Liffré-Cormier Communauté","NOM_BATI":"Mairie Atelier Relais","ADRESSE":"ZA DE BELLEVUE","SURFACE":560,"RENOVATION":"Non","TYPE":"Technique","CO2 en Tonnes":1.296448,"ANNEE":"2022"},"geometry":{"type":"Point","coordinates":[-1.4354644,48.1739587]}},{"type":"Feature","properties":{"ID_BAT":"3503107","CODE_INSEE":"35031","NOM_COM":"La Bouëxière","CODE_EPCI":"243500774","NOM_EPCI":"CC Liffré-Cormier Communauté","NOM_BATI":"Parc Des Sports","ADRESSE":"1 RUE DU STADE","SURFACE":377,"RENOVATION":"Non","TYPE":"Sportif","CO2 en Tonnes":11.3542556,"ANNEE":"2022"},"geometry":{"type":"Point","coordinates":[-1.4336861,48.1805349]}},{"type":"Feature","properties":{"ID_BAT":"3503108","CODE_INSEE":"35031","NOM_COM":"La Bouëxière","CODE_EPCI":"243500774","NOM_EPCI":"CC Liffré-Cormier Communauté","NOM_BATI":"Ateliers Municipaux","ADRESSE":"10 RUE DES TANNEURS","SURFACE":430,"RENOVATION":"Non","TYPE":"Technique","CO2 en Tonnes":0.632512,"ANNEE":"2022"},"geometry":{"type":"Point","coordinates":[-1.4332621,48.17117]}},{"type":"Feature","properties":{"ID_BAT":"3503109","CODE_INSEE":"35031","NOM_COM":"La Bouëxière","CODE_EPCI":"243500774","NOM_EPCI":"CC Liffré-Cormier Communauté","NOM_BATI":"Salle Associative La Gendriniere","ADRESSE":"24 RUE JEAN MARIE PAVY","SURFACE":55,"RENOVATION":"Oui","TYPE":"Socio-culturel","CO2 en Tonnes":3.221985,"ANNEE":"2022"},"geometry":{"type":"Point","coordinates":[-1.4401761,48.1850122]}},{"type":"Feature","properties":{"ID_BAT":"3503110","CODE_INSEE":"35031","NOM_COM":"La Bouëxière","CODE_EPCI":"243500774","NOM_EPCI":"CC Liffré-Cormier Communauté","NOM_BATI":"Foyer Des Jeunes","ADRESSE":"2 RUE DE BREHAT","SURFACE":50,"RENOVATION":"Non","TYPE":"Socio-culturel","CO2 en Tonnes":0.34048,"ANNEE":"2022"},"geometry":{"type":"Point","coordinates":[-1.4418081,48.1865273]}},{"type":"Feature","properties":{"ID_BAT":"3503111","CODE_INSEE":"35031","NOM_COM":"La Bouëxière","CODE_EPCI":"243500774","NOM_EPCI":"CC Liffré-Cormier Communauté","NOM_BATI":"Salle Communale & Chauffage Presbytere","ADRESSE":"4 RUE SAINT MARTIN","SURFACE":550,"RENOVATION":"Non","TYPE":"Socio-culturel","CO2 en Tonnes":0.568,"ANNEE":"2022"},"geometry":{"type":"Point","coordinates":[-1.4381303,48.1843973]}},{"type":"Feature","properties":{"ID_BAT":"3503112","CODE_INSEE":"35031","NOM_COM":"La Bouëxière","CODE_EPCI":"243500774","NOM_EPCI":"CC Liffré-Cormier Communauté","NOM_BATI":"R.a.s.e.d","ADRESSE":"16 RUE DES ECOLES","SURFACE":100,"RENOVATION":"Non","TYPE":"Scolaire - enfance","CO2 en Tonnes":0.538496,"ANNEE":"2022"},"geometry":{"type":"Point","coordinates":[-1.4358175,48.1815326]}},{"type":"Feature","properties":{"ID_BAT":"3503113","CODE_INSEE":"35031","NOM_COM":"La Bouëxière","CODE_EPCI":"243500774","NOM_EPCI":"CC Liffré-Cormier Communauté","NOM_BATI":"Clsh Garderie","ADRESSE":"12 RUE DES ECOLES","SURFACE":232,"RENOVATION":"Non","TYPE":"Scolaire – enfance","CO2 en Tonnes":0.102464,"ANNEE":"2022"},"geometry":{"type":"Point","coordinates":[-1.4357529,48.1817319]}},{"type":"Feature","properties":{"ID_BAT":"3503114","CODE_INSEE":"35031","NOM_COM":"La Bouëxière","CODE_EPCI":"243500774","NOM_EPCI":"CC Liffré-Cormier Communauté","NOM_BATI":"Service Technique","ADRESSE":"RUE DU STADE","SURFACE":400,"RENOVATION":"Non","TYPE":"Technique","CO2 en Tonnes":0.430976,"ANNEE":"2022"},"geometry":{"type":"Point","coordinates":[-1.4347727,48.1794643]}},{"type":"Feature","properties":{"ID_BAT":"3503115","CODE_INSEE":"35031","NOM_COM":"La Bouëxière","CODE_EPCI":"243500774","NOM_EPCI":"CC Liffré-Cormier Communauté","NOM_BATI":"Logement Labbe","ADRESSE":"0","SURFACE":100,"RENOVATION":"Non","TYPE":"Résidentiel","CO2 en Tonnes":1.469376,"ANNEE":"2021"},"geometry":{"type":"Point","coordinates":[-1.4374516,48.1819689]}},{"type":"Feature","properties":{"ID_BAT":"3505801","CODE_INSEE":"35058","NOM_COM":"La Chapelle-Chaussée","CODE_EPCI":"243500139","NOM_EPCI":"Rennes Métropole","NOM_BATI":"Ecole Publique-Afel","ADRESSE":"14 Rue du Lavoir","SURFACE":1838,"RENOVATION":"Non","TYPE":"Scolaire – enfance","CO2 en Tonnes":47.4034327,"ANNEE":"2022"},"geometry":{"type":"Point","coordinates":[-1.8535013,48.2727883]}},{"type":"Feature","properties":{"ID_BAT":"3505802","CODE_INSEE":"35058","NOM_COM":"La Chapelle-Chaussée","CODE_EPCI":"243500139","NOM_EPCI":"Rennes Métropole","NOM_BATI":"Mediatheque","ADRESSE":"3 Rue de Montmuran","SURFACE":280,"RENOVATION":"Oui","TYPE":"Socio-culturel","CO2 en Tonnes":1.002944,"ANNEE":"2022"},"geometry":{"type":"Point","coordinates":[-1.8541257,48.2708512]}},{"type":"Feature","properties":{"ID_BAT":"3505803","CODE_INSEE":"35058","NOM_COM":"La Chapelle-Chaussée","CODE_EPCI":"243500139","NOM_EPCI":"Rennes Métropole","NOM_BATI":"Mairie/Cantine","ADRESSE":"Place de la Mairie","SURFACE":881,"RENOVATION":"Non","TYPE":"Administratif","CO2 en Tonnes":2.617728,"ANNEE":"2022"},"geometry":{"type":"Point","coordinates":[-1.8534706,48.2710444]}},{"type":"Feature","properties":{"ID_BAT":"3505804","CODE_INSEE":"35058","NOM_COM":"La Chapelle-Chaussée","CODE_EPCI":"243500139","NOM_EPCI":"Rennes Métropole","NOM_BATI":"Salle Des Sports","ADRESSE":"12 Rue de Brocéliande","SURFACE":817,"RENOVATION":"Non","TYPE":"Sportif","CO2 en Tonnes":0.512384,"ANNEE":"2022"},"geometry":{"type":"Point","coordinates":[-1.8566781,48.269775]}},{"type":"Feature","properties":{"ID_BAT":"3505805","CODE_INSEE":"35058","NOM_COM":"La Chapelle-Chaussée","CODE_EPCI":"243500139","NOM_EPCI":"Rennes Métropole","NOM_BATI":"Atelier Communal","ADRESSE":"9 Rue du Lavoir","SURFACE":340,"RENOVATION":"Non","TYPE":"Technique","CO2 en Tonnes":0.23232,"ANNEE":"2022"},"geometry":{"type":"Point","coordinates":[-1.8546209,48.2723875]}},{"type":"Feature","properties":{"ID_BAT":"3506501","CODE_INSEE":"35065","NOM_COM":"La Chapelle-Thouarault","CODE_EPCI":"243500139","NOM_EPCI":"Rennes Métropole","NOM_BATI":"Groupe Scolaire","ADRESSE":"1 rue de la chesnaie","SURFACE":2663,"RENOVATION":"Non","TYPE":"Scolaire – enfance","CO2 en Tonnes":46.7679859,"ANNEE":"2022"},"geometry":{"type":"Point","coordinates":[-1.8670894,48.1234623]}},{"type":"Feature","properties":{"ID_BAT":"3506502","CODE_INSEE":"35065","NOM_COM":"La Chapelle-Thouarault","CODE_EPCI":"243500139","NOM_EPCI":"Rennes Métropole","NOM_BATI":"Bibliotheque","ADRESSE":"Place George C. Padgett","SURFACE":254,"RENOVATION":"Non","TYPE":"Socio-culturel","CO2 en Tonnes":1.085696,"ANNEE":"2022"},"geometry":{"type":"Point","coordinates":[-1.8662456,48.1234053]}},{"type":"Feature","properties":{"ID_BAT":"3506503","CODE_INSEE":"35065","NOM_COM":"La Chapelle-Thouarault","CODE_EPCI":"243500139","NOM_EPCI":"Rennes Métropole","NOM_BATI":"Salle Socioculturelle","ADRESSE":"13 Rue des Rochers","SURFACE":922,"RENOVATION":"Non","TYPE":"Socio-culturel","CO2 en Tonnes":21.2317808,"ANNEE":"2022"},"geometry":{"type":"Point","coordinates":[-1.8624692,48.1227877]}},{"type":"Feature","properties":{"ID_BAT":"3506504","CODE_INSEE":"35065","NOM_COM":"La Chapelle-Thouarault","CODE_EPCI":"243500139","NOM_EPCI":"Rennes Métropole","NOM_BATI":"Vestiaire De Foot","ADRESSE":"rue des vignes","SURFACE":146,"RENOVATION":"Non","TYPE":"Sportif","CO2 en Tonnes":0.352384,"ANNEE":"2022"},"geometry":{"type":"Point","coordinates":[-1.8701082,48.1223654]}},{"type":"Feature","properties":{"ID_BAT":"3506506","CODE_INSEE":"35065","NOM_COM":"La Chapelle-Thouarault","CODE_EPCI":"243500139","NOM_EPCI":"Rennes Métropole","NOM_BATI":"Maison Des Jeunes\r\n(Haut Village)","ADRESSE":"10 rue du haut village","SURFACE":353,"RENOVATION":"Non","TYPE":"Cultuel","CO2 en Tonnes":15.4701795,"ANNEE":"2022"},"geometry":{"type":"Point","coordinates":[-1.8685295,48.1266234]}},{"type":"Feature","properties":{"ID_BAT":"3506507","CODE_INSEE":"35065","NOM_COM":"La Chapelle-Thouarault","CODE_EPCI":"243500139","NOM_EPCI":"Rennes Métropole","NOM_BATI":"Mairie","ADRESSE":"Place George C. Padgett","SURFACE":1165,"RENOVATION":"Oui","TYPE":"Administratif","CO2 en Tonnes":10.0717341,"ANNEE":"2022"},"geometry":{"type":"Point","coordinates":[-1.8663092,48.1237295]}},{"type":"Feature","properties":{"ID_BAT":"3506508","CODE_INSEE":"35065","NOM_COM":"La Chapelle-Thouarault","CODE_EPCI":"243500139","NOM_EPCI":"Rennes Métropole","NOM_BATI":"Salle De Sports","ADRESSE":"Rue de la Rimaudière","SURFACE":1200,"RENOVATION":"Non","TYPE":"Sportif","CO2 en Tonnes":1.51488,"ANNEE":"2022"},"geometry":{"type":"Point","coordinates":[-1.8695493,48.1240088]}},{"type":"Feature","properties":{"ID_BAT":"3506509","CODE_INSEE":"35065","NOM_COM":"La Chapelle-Thouarault","CODE_EPCI":"243500139","NOM_EPCI":"Rennes Métropole","NOM_BATI":"Ateliers Communaux","ADRESSE":"9 contour du clos fauvel","SURFACE":743,"RENOVATION":"Non","TYPE":"Technique","CO2 en Tonnes":0.449216,"ANNEE":"2022"},"geometry":{"type":"Point","coordinates":[-1.871086,48.1239931]}},{"type":"Feature","properties":{"ID_BAT":"3506510","CODE_INSEE":"35065","NOM_COM":"La Chapelle-Thouarault","CODE_EPCI":"243500139","NOM_EPCI":"Rennes Métropole","NOM_BATI":"Maison Medicale","ADRESSE":"4 rue de la chesnaie","SURFACE":80,"RENOVATION":"Non","TYPE":"Médico-social","CO2 en Tonnes":0.097024,"ANNEE":"2022"},"geometry":{"type":"Point","coordinates":[-1.8669202,48.1242596]}},{"type":"Feature","properties":{"ID_BAT":"3505901","CODE_INSEE":"35059","NOM_COM":"La Chapelle-des-Fougeretz","CODE_EPCI":"243500139","NOM_EPCI":"Rennes Métropole","NOM_BATI":"Ateliers Municipaux","ADRESSE":"7 Rue du Matelon","SURFACE":527,"RENOVATION":"Non","TYPE":"Technique","CO2 en Tonnes":4.3475827,"ANNEE":"2022"},"geometry":{"type":"Point","coordinates":[-1.7341194,48.1791737]}},{"type":"Feature","properties":{"ID_BAT":"3505902","CODE_INSEE":"35059","NOM_COM":"La Chapelle-des-Fougeretz","CODE_EPCI":"243500139","NOM_EPCI":"Rennes Métropole","NOM_BATI":"Crêche Calinou","ADRESSE":"2 Pl. des Droits de l'Homme","SURFACE":268,"RENOVATION":"Non","TYPE":"Scolaire – enfance","CO2 en Tonnes":3.2450168,"ANNEE":"2022"},"geometry":{"type":"Point","coordinates":[-1.7338288,48.1783484]}},{"type":"Feature","properties":{"ID_BAT":"3505903","CODE_INSEE":"35059","NOM_COM":"La Chapelle-des-Fougeretz","CODE_EPCI":"243500139","NOM_EPCI":"Rennes Métropole","NOM_BATI":"Ecole Maternelle","ADRESSE":"2 bis rue des Carlets","SURFACE":1236,"RENOVATION":"Non","TYPE":"Scolaire – enfance","CO2 en Tonnes":29.618389,"ANNEE":"2022"},"geometry":{"type":"Point","coordinates":[-1.7309428,48.1766229]}},{"type":"Feature","properties":{"ID_BAT":"3505904","CODE_INSEE":"35059","NOM_COM":"La Chapelle-des-Fougeretz","CODE_EPCI":"243500139","NOM_EPCI":"Rennes Métropole","NOM_BATI":"Ecole Élémentaire","ADRESSE":"5 Rue de Rennes","SURFACE":1549,"RENOVATION":"Oui","TYPE":"Scolaire – enfance","CO2 en Tonnes":36.2463924,"ANNEE":"2022"},"geometry":{"type":"Point","coordinates":[-1.7316715,48.1762837]}},{"type":"Feature","properties":{"ID_BAT":"3505905","CODE_INSEE":"35059","NOM_COM":"La Chapelle-des-Fougeretz","CODE_EPCI":"243500139","NOM_EPCI":"Rennes Métropole","NOM_BATI":"Eglise","ADRESSE":"Rue de la Mairie","SURFACE":405,"RENOVATION":"Non","TYPE":"Cultuel","CO2 en Tonnes":2.9352959,"ANNEE":"2022"},"geometry":{"type":"Point","coordinates":[-1.7334576,48.1777636]}},{"type":"Feature","properties":{"ID_BAT":"3505906","CODE_INSEE":"35059","NOM_COM":"La Chapelle-des-Fougeretz","CODE_EPCI":"243500139","NOM_EPCI":"Rennes Métropole","NOM_BATI":"Mairie","ADRESSE":"2 Rue de la Mairie","SURFACE":574,"RENOVATION":"Oui","TYPE":"Administratif","CO2 en Tonnes":12.8755585,"ANNEE":"2022"},"geometry":{"type":"Point","coordinates":[-1.7325376,48.1771483]}},{"type":"Feature","properties":{"ID_BAT":"3505907","CODE_INSEE":"35059","NOM_COM":"La Chapelle-des-Fougeretz","CODE_EPCI":"243500139","NOM_EPCI":"Rennes Métropole","NOM_BATI":"Mairie Annexe","ADRESSE":"3 Rue des Carlets","SURFACE":269,"RENOVATION":"Oui","TYPE":"Administratif","CO2 en Tonnes":0.003136,"ANNEE":"2022"},"geometry":{"type":"Point","coordinates":[-1.7321332,48.1772319]}},{"type":"Feature","properties":{"ID_BAT":"3505908","CODE_INSEE":"35059","NOM_COM":"La Chapelle-des-Fougeretz","CODE_EPCI":"243500139","NOM_EPCI":"Rennes Métropole","NOM_BATI":"Maison De Le Hubaudière","ADRESSE":"12 Rue de la Métairie","SURFACE":250,"RENOVATION":"Non","TYPE":"Socio-culturel","CO2 en Tonnes":0.307712,"ANNEE":"2022"},"geometry":{"type":"Point","coordinates":[-1.7322668,48.178935]}},{"type":"Feature","properties":{"ID_BAT":"3505909","CODE_INSEE":"35059","NOM_COM":"La Chapelle-des-Fougeretz","CODE_EPCI":"243500139","NOM_EPCI":"Rennes Métropole","NOM_BATI":"Médiathèque","ADRESSE":"2 Rue des Carlets","SURFACE":450,"RENOVATION":"Non","TYPE":"Socio-culturel","CO2 en Tonnes":10.4381906,"ANNEE":"2022"},"geometry":{"type":"Point","coordinates":[-1.7323934,48.1767647]}},{"type":"Feature","properties":{"ID_BAT":"3505910","CODE_INSEE":"35059","NOM_COM":"La Chapelle-des-Fougeretz","CODE_EPCI":"243500139","NOM_EPCI":"Rennes Métropole","NOM_BATI":"Restaurant Scolaire","ADRESSE":"17 Rue des Carlets","SURFACE":385,"RENOVATION":"Non","TYPE":"Restauration","CO2 en Tonnes":16.6880087,"ANNEE":"2022"},"geometry":{"type":"Point","coordinates":[-1.7310168,48.1780142]}},{"type":"Feature","properties":{"ID_BAT":"3505911","CODE_INSEE":"35059","NOM_COM":"La Chapelle-des-Fougeretz","CODE_EPCI":"243500139","NOM_EPCI":"Rennes Métropole","NOM_BATI":"Salle Des Cerisiers","ADRESSE":"rue de Kalchreuth","SURFACE":301,"RENOVATION":"Non","TYPE":"Socio-culturel","CO2 en Tonnes":1.2811312,"ANNEE":"2022"},"geometry":{"type":"Point","coordinates":[-1.7345395,48.1782925]}},{"type":"Feature","properties":{"ID_BAT":"3505912","CODE_INSEE":"35059","NOM_COM":"La Chapelle-des-Fougeretz","CODE_EPCI":"243500139","NOM_EPCI":"Rennes Métropole","NOM_BATI":"Salle De Sports De Raquettes Et Combat","ADRESSE":"Rue de Rennes","SURFACE":1147,"RENOVATION":"Non","TYPE":"Sportif","CO2 en Tonnes":12.9587631,"ANNEE":"2022"},"geometry":{"type":"Point","coordinates":[-1.7302087,48.176056]}},{"type":"Feature","properties":{"ID_BAT":"3505913","CODE_INSEE":"35059","NOM_COM":"La Chapelle-des-Fougeretz","CODE_EPCI":"243500139","NOM_EPCI":"Rennes Métropole","NOM_BATI":"Salle Omnisports Et Vestiaires De Foot","ADRESSE":"Rue de Rennes","SURFACE":1673,"RENOVATION":"Non","TYPE":"Sportif","CO2 en Tonnes":9.4588357,"ANNEE":"2022"},"geometry":{"type":"Point","coordinates":[-1.7269085,48.1747998]}},{"type":"Feature","properties":{"ID_BAT":"3505914","CODE_INSEE":"35059","NOM_COM":"La Chapelle-des-Fougeretz","CODE_EPCI":"243500139","NOM_EPCI":"Rennes Métropole","NOM_BATI":"Maison De L'enfance","ADRESSE":"2 rue de la Métairie","SURFACE":160,"RENOVATION":"Non","TYPE":"Scolaire – enfance","CO2 en Tonnes":1.03296,"ANNEE":"2022"},"geometry":{"type":"Point","coordinates":[-1.7334766,48.1784784]}},{"type":"Feature","properties":{"ID_BAT":"3505915","CODE_INSEE":"35059","NOM_COM":"La Chapelle-des-Fougeretz","CODE_EPCI":"243500139","NOM_EPCI":"Rennes Métropole","NOM_BATI":"Maison Des Associations","ADRESSE":"1bis rue de la Métairie","SURFACE":283,"RENOVATION":"Non","TYPE":"Scolaire – enfance","CO2 en Tonnes":0.539136,"ANNEE":"2022"},"geometry":{"type":"Point","coordinates":[-1.7331581,48.1790722]}},{"type":"Feature","properties":{"ID_BAT":"3505916","CODE_INSEE":"35059","NOM_COM":"La Chapelle-des-Fougeretz","CODE_EPCI":"243500139","NOM_EPCI":"Rennes Métropole","NOM_BATI":"Local Jeunes","ADRESSE":"3 rue de la Métairie","SURFACE":144,"RENOVATION":"Non","TYPE":"Scolaire – enfance","CO2 en Tonnes":0.283712,"ANNEE":"2022"},"geometry":{"type":"Point","coordinates":[-1.7328693,48.1790543]}},{"type":"Feature","properties":{"ID_BAT":"3517701","CODE_INSEE":"35177","NOM_COM":"La Mézière","CODE_EPCI":"243500667","NOM_EPCI":"CC Val d'Ille-Aubigné","NOM_BATI":"Mairie","ADRESSE":"Rue de Maceria","SURFACE":1120,"RENOVATION":"Oui","TYPE":"Administratif","CO2 en Tonnes":9.9532607,"ANNEE":"2022"},"geometry":{"type":"Point","coordinates":[-1.753824,48.2195091]}},{"type":"Feature","properties":{"ID_BAT":"3517702","CODE_INSEE":"35177","NOM_COM":"La Mézière","CODE_EPCI":"243500667","NOM_EPCI":"CC Val d'Ille-Aubigné","NOM_BATI":"Salle De Sports Orion","ADRESSE":"Rue de Texue","SURFACE":1886.6,"RENOVATION":"Non","TYPE":"Sportif","CO2 en Tonnes":39.0120231,"ANNEE":"2022"},"geometry":{"type":"Point","coordinates":[-1.752747,48.2153494]}},{"type":"Feature","properties":{"ID_BAT":"3517703","CODE_INSEE":"35177","NOM_COM":"La Mézière","CODE_EPCI":"243500667","NOM_EPCI":"CC Val d'Ille-Aubigné","NOM_BATI":"Espace Polyvalent (Salles Associatives, Pij)","ADRESSE":"25 Place de l'église","SURFACE":1067,"RENOVATION":"Non","TYPE":"Socio-culturel","CO2 en Tonnes":3.817088,"ANNEE":"2022"},"geometry":{"type":"Point","coordinates":[-1.7567068,48.2196078]}},{"type":"Feature","properties":{"ID_BAT":"3517704","CODE_INSEE":"35177","NOM_COM":"La Mézière","CODE_EPCI":"243500667","NOM_EPCI":"CC Val d'Ille-Aubigné","NOM_BATI":"Complexe Sportif Et Culturel F. Mitterrand (Cassiopée, Sirius, Antares, Pégase, Vestiaires Douches)","ADRESSE":"Rue de Texue","SURFACE":3563,"RENOVATION":"Non","TYPE":"Sportif","CO2 en Tonnes":5.974912,"ANNEE":"2022"},"geometry":{"type":"Point","coordinates":[-1.7537297,48.2152796]}},{"type":"Feature","properties":{"ID_BAT":"3517705","CODE_INSEE":"35177","NOM_COM":"La Mézière","CODE_EPCI":"243500667","NOM_EPCI":"CC Val d'Ille-Aubigné","NOM_BATI":"Groupe Scolaire P-J Helias","ADRESSE":"Rue de la Flume","SURFACE":1220,"RENOVATION":"Non","TYPE":"Scolaire – enfance","CO2 en Tonnes":7.056512,"ANNEE":"2022"},"geometry":{"type":"Point","coordinates":[-1.7579626,48.2199476]}},{"type":"Feature","properties":{"ID_BAT":"3517706","CODE_INSEE":"35177","NOM_COM":"La Mézière","CODE_EPCI":"243500667","NOM_EPCI":"CC Val d'Ille-Aubigné","NOM_BATI":"Pole Enfance - Espace Coccinelle","ADRESSE":"Rue de la Flume","SURFACE":625,"RENOVATION":"Non","TYPE":"Scolaire – enfance","CO2 en Tonnes":21.83619,"ANNEE":"2022"},"geometry":{"type":"Point","coordinates":[-1.7565951,48.2210514]}},{"type":"Feature","properties":{"ID_BAT":"3517707","CODE_INSEE":"35177","NOM_COM":"La Mézière","CODE_EPCI":"243500667","NOM_EPCI":"CC Val d'Ille-Aubigné","NOM_BATI":"Ecole J-Y Cousteau + Restaurant","ADRESSE":"Rue du Chêne Hamon","SURFACE":2803,"RENOVATION":"Non","TYPE":"Scolaire – enfance","CO2 en Tonnes":79.7565618,"ANNEE":"2022"},"geometry":{"type":"Point","coordinates":[-1.7587991,48.219124]}},{"type":"Feature","properties":{"ID_BAT":"3517708","CODE_INSEE":"35177","NOM_COM":"La Mézière","CODE_EPCI":"243500667","NOM_EPCI":"CC Val d'Ille-Aubigné","NOM_BATI":"Foyer Soleil","ADRESSE":"2 rue du Chêne Hamon","SURFACE":380,"RENOVATION":"Non","TYPE":"Socio-culturel","CO2 en Tonnes":1.3312,"ANNEE":"2022"},"geometry":{"type":"Point","coordinates":[-1.758159,48.2188357]}},{"type":"Feature","properties":{"ID_BAT":"3517709","CODE_INSEE":"35177","NOM_COM":"La Mézière","CODE_EPCI":"243500667","NOM_EPCI":"CC Val d'Ille-Aubigné","NOM_BATI":"Atelier Technique Municipal","ADRESSE":"Beauséjour","SURFACE":808.24,"RENOVATION":"Non","TYPE":"Technique","CO2 en Tonnes":1.15264,"ANNEE":"2022"},"geometry":{"type":"Point","coordinates":[-1.74618,48.2164033]}},{"type":"Feature","properties":{"ID_BAT":"3517711","CODE_INSEE":"35177","NOM_COM":"La Mézière","CODE_EPCI":"243500667","NOM_EPCI":"CC Val d'Ille-Aubigné","NOM_BATI":"Mediatheque - Centre De Loisirs - Salle De Musique","ADRESSE":"Rue de la Flume","SURFACE":1176,"RENOVATION":"Oui","TYPE":"Socio-culturel","CO2 en Tonnes":23.5727266,"ANNEE":"2022"},"geometry":{"type":"Point","coordinates":[-1.7565025,48.220179]}},